     2.10           OBSERVATION DATA    M (MIXED)           RINEX VERSION / TYPE
Pinnacle 1.00                           30-MAY-11 20:31     PGM / RUN BY / DATE
build April 19, 2002                                        COMMENT
-Unknown-           -Unknown-                               OBSERVER / AGENCY
         Begin Pinnacle project                             COMMENT
VG_GPS                                                      COMMENT
                                                            COMMENT
                                                            COMMENT
May 30, 2011 8:29:02 pm                                     COMMENT
                                                            COMMENT
                                                            COMMENT
C:\data\VG_GPS\projekt\Pinnacle.dbd                         COMMENT
         End Pinnacle project                               COMMENT
                                                            COMMENT
1001                                                        MARKER NAME
1001                                                        MARKER NUMBER
8QG4AWP4FEO         TPS HIPER           3.3 Dec,22,2008 p6  REC # / TYPE / VERS
-Unknown-           TPSPG_A1                                ANT # / TYPE
  3917256.5867  1190216.5774  4875462.7186                  APPROX POSITION XYZ
        1.3300        0.0000        0.0000                  ANTENNA: DELTA H/E/N
     1     1                                                WAVELENGTH FACT L1/2
     7    L1    L2    C1    P1    P2    D1    D2            # / TYPES OF OBSERV
     5.000                                                  INTERVAL
  2011     5    30     7    28   15.0000000     GPS         TIME OF FIRST OBS
  2011     5    30     7    57   50.0000000     GPS         TIME OF LAST OBS
    15                                                      LEAP SECONDS
    18                                                      # OF SATELLITES
   R 3   356   356   356   356   356   356   356            PRN / # OF OBS
   R 5   356   356   356   356   356   356   356            PRN / # OF OBS
   R 6   198   195   198   195   195   198   195            PRN / # OF OBS
   R14   356     0   356   356     0   356     0            PRN / # OF OBS
   R15   356   356   356   356   356   356   356            PRN / # OF OBS
   R16   289   289   289   289   289   289   289            PRN / # OF OBS
   R21   325   322   325   322   322   325   322            PRN / # OF OBS
   R22    77    75    77    75    75    77    75            PRN / # OF OBS
   G 2   336   308   336   308   308   336   308            PRN / # OF OBS
   G 4   356   356   356   356   356   356   356            PRN / # OF OBS
   G 7   356   356   356   356   356   356   356            PRN / # OF OBS
   G 8   243   243   243   243   243   243   243            PRN / # OF OBS
   G10   356   356   356   356   356   356   356            PRN / # OF OBS
   G13   356   356   356   356   356   356   356            PRN / # OF OBS
   G16   356   356   356   356   356   356   356            PRN / # OF OBS
   G20   356   356   356   356   356   356   356            PRN / # OF OBS
   G23   356   356   356   356   356   356   356            PRN / # OF OBS
   G30   320   319   320   319   319   320   319            PRN / # OF OBS
SE TPS 123782eb                                             COMMENT
                                                            END OF HEADER
 11  5 30  7 28 15.0000000  0 14G 4G 2G 7G23G10R21G13R 6R14G16R 3R 5
                                R15G20                              
 112593253.119    87735022.3354   21425784.057 8  21425784.28446  21425788.21146
      1963.117        1529.706  
 120039899.654    93537582.2474   22842829.377 5  22842830.48341  22842833.06741
      5061.339        3943.934  
 120334900.400    93767474.3444   22898971.239 7  22898970.99945  22898974.43545
      6335.124        4936.463  
 110397169.338    86023787.0614   21007883.478 8  21007882.87146  21007884.10846
      1102.305         858.939  
 113391594.200    88357107.2324   21577702.920 7  21577702.05845  21577706.94245
      5325.085        4149.421  
 120310738.286    93575041.115    22482936.011 5  22482936.756 5  22482937.286 5
      1494.022        1162.036  
 105673998.141    82343394.1344   20109093.583 8  20109093.22847  20109095.98746
      3105.729        2420.051  
 119632318.651    93047371.235    22419042.574 5  22419042.653 4  22419047.025 6
      6434.030        5004.234  
 108774723.974                    20405860.678 7  20405860.673 7                
      1231.878                  
 126282194.982    98401731.6594   24030701.531 6  24030701.17443  24030707.62343
      4578.207        3567.438  
 109154253.297    84897774.864    20469855.315 7  20469854.739 7  20469860.635 7
      1084.021         843.129  
 104198566.449    81043353.978    19492497.393 8  19492496.863 8  19492500.619 7
      3784.879        2943.797  
 108675965.887    84525775.238    20337225.443 7  20337226.103 7  20337230.275 7
      5911.095        4597.521  
 119062822.343    92776244.1884   22656902.112 7  22656901.77945  22656906.83345
      -203.180        -158.318  
 11  5 30  7 28 20.0000000  0 14G 4G 2G 7G23G10R21G13R 6R14G16R 3R 5
                                R15G20                              
 112583433.015    87727370.3034   21423915.353 7  21423915.54146  21423919.38346
      1964.763        1530.989  
 120014586.969    93517858.0724   22838014.767 4  22838013.85541  22838016.45441
      5063.609        3945.712  
 120303215.398    93742784.7404   22892942.162 7  22892941.72345  22892944.89245
      6338.803        4939.337  
 110391649.212    86019485.6594   21006833.073 8  21006832.27646  21006833.62846
      1105.576         861.504  
 113364960.240    88336353.4954   21572634.928 7  21572633.86845  21572638.77945
      5328.360        4151.970  
 120303263.461    93569227.362    22481539.195 5  22481539.311 5  22481540.581 5
      1495.296        1163.008  
 105658462.926    82331288.7684   20106136.739 8  20106136.96946  20106139.74646
      3108.293        2422.045  
 119600137.667    93022341.594    22413009.481 4  22413011.510 4  22413016.164 6
      6438.750        5007.919  
 108768562.103                    20404704.169 7  20404704.254 7                
      1232.640                  
 126259297.173    98383889.2264   24026344.694 6  24026343.91743  24026350.00143
      4580.661        3569.389  
 109148831.204    84893557.671    20468837.964 7  20468838.029 7  20468844.076 7
      1084.817         843.746  
 104179635.379    81028629.813    19488956.025 8  19488955.458 8  19488959.329 7
      3787.452        2945.804  
 108646406.129    84502784.320    20331693.834 7  20331694.010 7  20331698.528 7
      5912.554        4598.657  
 119063828.565    92777028.2484   22657093.550 7  22657093.31845  22657098.09445
      -199.369        -155.344  
 11  5 30  7 28 25.0000000  0 14G 4G 2G 7G23G10R21G13R 6R14G16R 3R 5
                                R15G20                              
 112573604.575    87719711.7834   21422044.750 8  21422045.19746  21422049.19546
      1966.573        1532.396  
 119989263.212    93498125.3124   22833192.022 4  22833194.36941  22833197.63741
      5064.963        3946.739  
 120271512.785    93718081.4094   22886909.552 7  22886908.89045  22886911.98245
      6342.350        4942.099  
 110386113.275    86015171.9344   21005779.550 8  21005778.90346  21005780.23846
      1108.900         864.074  
 113338310.368    88315587.3614   21567563.144 7  21567562.50345  21567567.35245
      5331.505        4154.415  
 120295783.908    93563409.940    22480134.965 4  22480139.299 4  22480144.057 5
      1496.228        1163.770  
 105642915.505    82319173.8904   20103178.437 8  20103178.36446  20103181.18946
      3110.767        2423.984  
 119567934.452    92997294.678    22406978.633 5  22406976.768 4  22406981.023 5
      6442.950        5011.188  
 108762396.322                    20403548.499 7  20403547.854 7                
      1233.600                  
 126236388.032    98366037.9444   24021985.130 6  24021984.49643  24021990.60143
      4582.987        3571.152  
 109143404.787    84889337.123    20467820.011 7  20467820.212 7  20467826.190 7
      1085.827         844.528  
 104160692.242    81013896.260    19485412.656 8  19485411.826 8  19485415.739 7
      3789.922        2947.726  
 108616839.300    84479787.902    20326160.266 7  20326160.556 7  20326165.390 7
      5914.168        4599.907  
 119064816.900    92777798.3674   22657281.801 7  22657281.25145  22657286.25445
      -195.667        -152.462  
 11  5 30  7 28 30.0000000  0 14G 4G 2G 7G23G10R21G13R 6R14G16R 3R 5
                                R15G20                              
 112563768.098    87712046.9844   21420173.437 8  21420173.33746  21420177.27746
      1968.208        1533.676  
 119963928.491    93478383.9644   22828375.713 5  22828373.92141  22828374.23041
      5067.847        3949.052  
 120239792.836    93693364.5784   22880873.853 7  22880872.81445  22880875.91145
      6345.783        4944.769  
 110380561.851    86010846.1424   21004722.720 8  21004722.52646  21004723.79246
      1111.915         866.435  
 113311644.870    88294809.0474   21562488.782 7  21562488.17145  21562492.61245
      5334.739        4156.936  
 120288299.959    93557589.104    22478742.454 4  22478741.139 4  22478746.122 5
      1497.077        1164.398  
 105627356.090    82307049.6684   20100217.279 8  20100217.49546  20100220.25446
      3113.169        2425.850  
 119535709.384    92972230.747    22400935.990 5  22400939.155 5  22400941.739 5
      6447.306        5014.572  
 108756227.111                    20402390.138 7  20402390.123 7                
      1234.206                  
 126213467.858    98348178.0804   24017623.791 6  24017622.83243  24017628.85443
      4585.137        3572.845  
 109137974.303    84885113.406    20466801.996 7  20466801.767 7  20466807.751 7
      1086.639         845.168  
 104141737.309    80999153.534    19481866.311 8  19481865.991 8  19481869.580 7
      3792.165        2949.463  
 108587265.736    84456786.244    20320625.443 7  20320626.221 7  20320631.066 7
      5915.511        4600.953  
 119065787.635    92778554.7744   22657467.051 7  22657466.02145  22657470.82245
      -192.370        -149.906  
 11  5 30  7 28 35.0000000  0 14G 4G 2G 7G23G10R21G13R 6R14G16R 3R 5
                                R15G20                              
 112553923.591    87704375.9374   21418300.048 8  21418299.95346  21418303.94646
      1969.558        1534.717  
 119938582.994    93458634.2384   22823552.461 5  22823551.97141  22823551.90641
      5069.980        3950.598  
 120208055.569    93668634.2504   22874834.386 7  22874833.40145  22874836.82745
      6349.159        4947.393  
 110374994.938    86006508.2874   21003663.936 8  21003663.24846  21003664.31446
      1114.888         868.745  
 113284963.735    88274018.5534   21557411.385 7  21557410.88145  21557415.04945
      5337.854        4159.352  
 120280811.696    93551764.880    22477346.454 4  22477343.647 4  22477347.448 5
      1497.940        1165.078  
 105611784.669    82294916.0884   20097253.992 8  20097254.33646  20097257.20346
      3115.521        2427.681  
 119503462.529    92947149.849    22394894.432 5  22394895.632 5  22394898.242 5
      6451.364        5017.722  
 108750054.327                    20401232.049 7  20401231.872 7                
      1234.849                  
 126190536.658    98330309.6294   24013259.596 6  24013259.09543  24013265.01543
      4587.388        3574.612  
 109132539.710    84880886.503    20465783.473 7  20465782.742 7  20465788.061 7
      1087.243         845.628  
 104122770.556    80984401.620    19478318.778 8  19478318.028 8  19478321.285 7
      3794.471        2951.259  
 108557685.433    84433779.342    20315090.751 7  20315090.860 7  20315095.411 7
      5916.645        4601.839  
 119066740.717    92779297.4294   22657648.761 7  22657647.71645  22657652.21145
      -188.900        -147.199  
 11  5 30  7 28 40.0000000  0 14G 4G 2G 7G23G10R21G13R 6R14G16R 3R 5
                                R15G20                              
 112544071.236    87696698.7714   21416425.343 7  21416425.11446  21416429.10046
      1971.259        1536.052  
 119913226.811    93438876.1544   22818727.516 5  22818726.21541  22818726.40541
      5072.968        3952.922  
 120176301.187    93643890.5834   22868790.820 7  22868790.61545  22868794.19245
      6352.554        4950.042  
 110369412.684    86002158.4754   21002601.416 8  21002600.93946  21002601.98846
      1117.981         871.151  
 113258267.194    88253216.0514   21552331.910 7  21552330.81945  21552334.92245
      5340.860        4161.715  
 120273319.190    93545937.363    22475945.038 5  22475944.313 4  22475947.675 5
      1498.791        1165.724  
 105596201.463    82282773.3294   20094289.419 8  20094288.96746  20094291.76246
      3117.762        2429.431  
 119471193.955    92922052.069    22388848.933 5  22388848.222 5  22388851.484 5
      6456.168        5021.464  
 108743878.271                    20400073.658 7  20400073.437 7                
      1235.582                  
 126167594.569    98312432.6904   24008894.125 6  24008892.95043  24008899.09643
      4589.694        3576.369  
 109127101.243    84876656.582    20464763.156 7  20464763.112 7  20464768.587 7
      1088.047         846.247  
 104103792.234    80969640.701    19474768.225 8  19474767.749 8  19474770.978 7
      3796.826        2953.080  
 108528098.970    84410767.653    20309554.795 7  20309554.219 7  20309558.620 7
      5918.000        4602.885  
 119067676.359    92780026.4914   22657826.994 7  22657825.85445  22657830.42345
      -185.377        -144.448  
 11  5 30  7 28 45.0000000  0 14G 4G 2G 7G23G10R21G13R 6R14G16R 3R 5
                                R15G20                              
 112534211.307    87689015.7104   21414548.630 8  21414548.79846  21414552.81646
      1972.594        1537.089  
 119887860.389    93419110.0884   22813900.253 5  22813899.35141  22813900.78241
      5074.459        3954.081  
 120144530.033    93619133.8464   22862744.565 7  22862744.60445  22862748.26845
      6355.773        4952.559  
 110363815.399    85997796.9444   21001536.605 8  21001535.86946  21001536.86346
      1120.951         873.478  
 113231555.563    88232401.7884   21547249.036 7  21547247.62845  21547252.03045
      5343.927        4164.104  
 120265822.820    93540106.840    22474543.010 5  22474541.785 4  22474546.788 5
      1499.877        1166.589  
 105580606.738    82270621.5944   20091321.612 8  20091321.35846  20091324.15646
      3120.135        2431.280  
 119438903.981    92896937.654    22382794.746 5  22382796.108 5  22382800.475 5
      6460.251        5024.632  
 108737699.055                    20398914.926 7  20398914.561 7                
      1236.098                  
 126144642.006    98294547.5924   24004525.458 6  24004525.76343  24004531.02343
      4591.500        3577.793  
 109121659.189    84872423.873    20463742.665 7  20463742.419 7  20463748.234 7
      1088.814         846.860  
 104084802.741    80954871.090    19471216.026 8  19471215.404 8  19471218.874 7
      3798.991        2954.780  
 108498506.217    84387751.074    20304016.308 7  20304016.202 7  20304020.696 7
      5919.127        4603.767  
 119068594.886    92780742.2124   22658001.872 7  22658000.61045  22658005.17045
      -182.019        -141.814  
 11  5 30  7 28 50.0000000  0 15G30G 4G 2G 7G23G10R21G13R 6R14G16R 3
                                R 5R15G20                           
 124856270.669    97290618.9294   23759359.009 6  23759358.61842  23759366.39142
      3248.414        2531.231  
 112524343.984    87681326.8834   21412671.074 8  21412671.28946  21412675.06946
      1974.101        1538.266  
 119862483.822    93399336.1264   22809070.345 5  22809070.11541  22809070.59241
      5076.737        3955.897  
 120112742.261    93594364.1584   22856695.953 7  22856695.68145  22856699.18945
      6359.274        4955.284  
 110358203.285    85993423.8624   21000468.228 8  21000467.80446  21000468.77846
      1123.926         875.810  
 113204829.046    88211575.9324   21542163.165 7  21542161.71945  21542166.39045
      5346.843        4166.372  
 120258322.567    93534273.361    22473142.766 4  22473139.805 4  22473144.265 5
      1500.930        1167.385  
 105565000.685    82258461.0284   20088352.009 8  20088351.63346  20088354.47846
      3122.307        2432.972  
 119406592.948    92871806.861    22376739.703 5  22376740.352 5  22376744.937 5
      6464.375        5027.856  
 108731517.088                    20397755.112 7  20397754.755 7                
      1236.702                  
 126121679.151    98276654.4574   24000155.026 6  24000155.56943  24000161.55643
      4593.405        3579.293  
 109116213.647    84868188.449    20462721.593 7  20462720.986 7  20462727.126 7
      1089.539         847.419  
 104065801.971    80940092.716    19467661.023 8  19467660.721 8  19467664.314 7
      3801.224        2956.509  
 108468907.533    84364729.874    20298476.653 7  20298477.263 7  20298481.835 7
      5920.168        4604.578  
 119069496.419    92781444.7024   22658174.339 7  22658172.50945  22658176.70245
      -178.612        -139.171  
 11  5 30  7 28 55.0000000  0 15G30G 4G 2G 7G23G10R21G13R 6R14G16R 3
                                R 5R15G20                           
 124840024.988    97277959.9564   23756269.144 6  23756268.23343  23756273.67443
      3249.791        2532.293  
 112514469.472    87673632.4514   21410792.446 8  21410792.38046  21410796.11946
      1975.589        1539.419  
 119837097.224    93379554.3414   22804237.510 5  22804238.47341  22804239.72341
      5078.094        3956.938  
 120080938.063    93569581.6694   22850644.040 7  22850643.58345  22850647.18245
      6362.611        4957.871  
 110352576.445    85989039.3124   20999397.838 8  20999397.08446  20999397.87546
      1126.684         877.945  
 113178087.758    88190738.5724   21537074.571 7  21537073.15945  21537077.77745
      5349.630        4168.529  
 120250818.754    93528437.048    22471741.638 4  22471738.388 4  22471741.245 5
      1501.132        1167.543  
 105549383.470    82246291.7704   20085379.947 8  20085379.82846  20085382.61646
      3124.540        2434.705  
 119374260.844    92846659.675    22370680.632 5  22370681.381 5  22370685.417 5
      6468.596        5031.151  
 108725332.408                    20396594.932 7  20396594.301 7                
      1236.997                  
 126098706.129    98258753.4104   23995783.912 6  23995783.77443  23995790.39043
      4595.521        3580.917  
 109110764.750    84863950.411    20461699.535 7  20461699.326 7  20461705.427 7
      1090.079         847.836  
 104046790.316    80925305.871    19464104.561 8  19464104.005 8  19464107.828 7
      3803.410        2958.210  
 108439303.095    84341704.206    20292936.954 7  20292937.457 7  20292941.853 7
      5921.454        4605.576  
 119070381.126    92782134.0774   22658341.706 7  22658340.68345  22658344.98745
      -175.283        -136.590  
 11  5 30  7 29  0.0000000  0 15G30G 4G 2G 7G23G10R21G13R 6R14G16R 3
                                R 5R15G20                           
 124823773.238    97265296.2564   23753176.341 6  23753176.00343  23753180.32343
      3250.899        2533.167  
 112504587.755    87665932.4044   21408912.008 8  21408911.87246  21408915.69946
      1977.020        1540.545  
 119811700.684    93359764.8754   22799403.572 4  22799405.27841  22799409.01941
      5080.327        3958.634  
 120049117.480    93544786.4154   22844589.069 7  22844588.45745  22844591.82045
      6365.816        4960.378  
 110346934.951    85984643.3324   20998323.688 8  20998323.27746  20998324.34346
      1129.684         880.286  
 113151331.785    88169889.7634   21531982.667 7  21531981.66245  21531986.47545
      5352.491        4170.767  
 120243311.382    93522597.949    22470339.225 4  22470336.411 4  22470337.444 5
      1502.135        1168.347  
 105533755.172    82234113.8704   20082405.854 8  20082405.82346  20082408.72146
      3126.802        2436.474  
 119341907.888    92821496.258    22364620.994 5  22364619.565 5  22364623.165 5
      6472.519        5034.180  
 108719144.988                    20395433.880 7  20395433.484 7                
      1237.760                  
 126075723.018    98240844.5144   23991412.036 6  23991410.80343  23991416.84643
      4597.653        3582.563  
 109105312.583    84859709.835    20460677.217 7  20460677.121 7  20460683.105 7
      1090.518         848.183  
 104027767.880    80910510.645    19460546.060 8  19460545.200 8  19460549.419 7
      3805.448        2959.795  
 108409692.669    84318673.881    20287396.414 7  20287396.460 7  20287400.754 7
      5922.614        4606.476  
 119071249.071    92782810.3934   22658505.960 7  22658505.77945  22658510.12145
      -171.896        -133.941  
 11  5 30  7 29  5.0000000  0 15G30G 4G 2G 7G23G10R21G13R 6R14G16R 3
                                R 5R15G20                           
 124807515.481    97252627.8734   23750081.456 6  23750081.91043  23750086.36143
      3252.053        2534.070  
 112494698.948    87658226.8304   21407030.248 8  21407030.10746  21407033.99446
      1978.346        1541.569  
 119786294.398    93339967.7464   22794573.036 4  22794572.02841  22794572.96341
      5082.425        3960.347  
 120017280.623    93519978.4824   22838530.076 7  22838529.93345  22838533.67145
      6369.040        4962.889  
 110341278.928    85980236.0344   20997247.418 8  20997246.99746  20997248.14546
      1132.677         882.604  
 113124561.227    88149029.5894   21526887.853 7  21526887.33745  21526891.99945
      5355.469        4173.085  
 120235800.575    93516756.220    22468932.136 5  22468933.021 4  22468933.872 5
      1502.592        1168.668  
 105518115.850    82221927.3844   20079429.620 8  20079429.78946  20079432.69546
      3128.925        2438.119  
 119309533.995    92796316.564    22358553.284 5  22358553.525 5  22358556.386 5
      6476.732        5037.459  
 108712955.071                    20394272.875 7  20394272.505 7                
      1238.244                  
 126052729.947    98222927.8414   23987036.151 6  23987035.63643  23987041.68343
      4599.465        3583.998  
 109099857.266    84855466.806    20459653.662 7  20459653.542 7  20459659.784 7
      1091.338         848.814  
 104008734.632    80895707.010    19456985.289 8  19456984.808 8  19456988.755 7
      3807.633        2961.485  
 108380076.710    84295639.259    20281853.999 7  20281854.280 7  20281858.453 7
      5923.745        4607.350  
 119072100.344    92783473.7174   22658668.218 7  22658667.75145  22658671.97645
      -168.667        -131.428  
 11  5 30  7 29 10.0000000  0 15G30G 4G 2G 7G23G10R21G13R 6R14G16R 3
                                R 5R15G20                           
 124791252.273    97239955.2224   23746987.508 6  23746987.29143  23746991.35643
      3253.151        2534.922  
 112484803.618    87650516.1874   21405146.938 8  21405146.96046  21405151.01146
      1979.698        1542.615  
 119760878.734    93320163.3604   22789736.827 4  22789736.06241  22789737.86541
      5084.191        3961.658  
 119985428.075    93495158.3214   22832467.937 7  22832468.09745  22832472.27045
      6372.012        4965.203  
 110335608.867    85975817.8034   20996168.934 8  20996167.97446  20996169.04746
      1135.333         884.676  
 113097776.634    88128158.4774   21521791.579 7  21521790.52645  21521795.01745
      5358.326        4175.327  
 120228286.778    93510912.182    22467529.025 5  22467528.928 4  22467529.618 5
      1503.046        1169.080  
 105502466.048    82209732.7344   20076452.040 8  20076451.73046  20076454.65046
      3131.154        2439.864  
 119277139.826    92771121.098    22352482.780 5  22352483.018 5  22352486.153 5
      6481.093        5040.837  
 108706763.054                    20393111.647 7  20393111.349 7                
      1238.483                  
 126029727.395    98205003.7724   23982659.101 6  23982658.47043  23982664.06643
      4601.446        3585.538  
 109094399.295    84851221.711    20458629.350 7  20458629.360 7  20458636.339 7
      1091.898         849.258  
 103989691.197    80880895.447    19453423.358 8  19453422.573 8  19453426.019 7
      3809.611        2963.039  
 108350455.763    84272600.746    20276311.099 7  20276311.272 7  20276315.349 7
      5924.619        4608.038  
 119072935.464    92784124.4474   22658827.370 7  22658826.57945  22658830.88245
      -165.417        -128.906  
 11  5 30  7 29 15.0000000  0 15G30G 4G 2G 7G23G10R21G13R 6R14G16R 3
                                R 5R15G20                           
 124774983.217    97227278.0334   23743891.453 6  23743891.30143  23743895.65643
      3254.469        2535.948  
 112474901.308    87642800.1004   21403262.481 8  21403262.64446  21403266.73546
      1981.152        1543.745  
 119735453.549    93300351.4844   22784902.239 4  22784898.96741  22784897.33841
      5086.217        3963.323  
 119953559.393    93470325.5924   22826403.156 7  22826403.29145  22826407.88445
      6375.553        4967.958  
 110329924.367    85971388.3114   20995087.049 8  20995086.04746  20995087.41146
      1138.230         886.922  
 113070977.626    88107276.1294   21516692.557 7  21516691.00745  21516695.15845
      5361.159        4177.531  
 120220769.722    93505065.548    22466126.436 4  22466124.662 4  22466125.823 5
      1503.384        1169.287  
 105486805.396    82197529.6264   20073471.935 8  20073471.59346  20073474.45246
      3133.325        2441.557  
 119244725.038    92745909.608    22346408.132 5  22346408.631 5  22346411.334 5
      6485.023        5043.916  
 108700568.580                    20391949.647 7  20391949.299 7                
      1239.117                  
 126006715.061    98187072.0874   23978280.190 6  23978279.18643  23978284.59543
      4603.397        3587.055  
 109088938.221    84846974.203    20457605.631 7  20457605.410 7  20457612.443 7
      1092.496         849.719  
 103970637.206    80866075.671    19449858.183 8  19449857.903 8  19449861.650 7
      3811.828        2964.749  
 108320828.931    84249557.661    20270767.755 7  20270767.197 7  20270771.080 7
      5925.972        4609.080  
 119073754.062    92784762.3084   22658983.408 7  22658982.32945  22658986.65545
      -162.166        -126.369  
 11  5 30  7 29 20.0000000  0 15G30G 4G 2G 7G23G10R21G13R 6R14G16R 3
                                R 5R15G20                           
 124758709.043    97214596.8524   23740793.635 6  23740793.83343  23740798.64443
      3255.383        2536.671  
 112464992.744    87635079.1304   21401377.093 8  21401377.05646  21401381.16046
      1982.278        1544.632  
 119710019.442    93280532.6984   22780062.464 5  22780059.32441  22780059.58641
      5087.594        3964.402  
 119921675.340    93445480.8794   22820334.891 7  22820335.57345  22820340.59145
      6378.329        4970.131  
 110324226.140    85966948.1304   20994002.594 8  20994001.81846  20994003.10246
      1141.104         889.174  
 113044164.929    88086383.1204   21511589.679 7  21511588.74445  21511592.88045
      5363.863        4179.642  
 120213249.963    93499216.837    22464717.817 4  22464717.794 4  22464721.035 5
      1504.252        1169.979  
 105471134.587    82185318.6034   20070489.686 8  20070489.56546  20070492.44446
      3135.171        2442.991  
 119212290.358    92720682.642    22340330.014 5  22340330.968 5  22340332.431 5
      6488.662        5046.731  
 108694372.244                    20390787.509 7  20390786.714 7                
      1239.511                  
 125983693.633    98169133.3324   23973898.367 6  23973897.84543  23973903.43143
      4605.157        3588.387  
 109083474.762    84842724.841    20456581.047 7  20456580.933 7  20456587.931 7
      1092.821         849.976  
 103951573.350    80851248.230    19446291.718 8  19446291.444 8  19446295.560 7
      3813.824        2966.307  
 108291197.715    84226511.168    20265223.086 7  20265222.485 7  20265226.203 7
      5926.624        4609.598  
 119074556.809    92785387.8104   22659135.676 7  22659135.12045  22659139.54445
      -158.893        -123.806  
 11  5 30  7 29 25.0000000  0 14G30G 4G 2G 7G23G10G13R 6R14G16R 3R 5
                                R15G20                              
 124742429.510    97201911.5004   23737694.533 6  23737695.74943  23737700.64943
      3256.576        2537.577  
 112455077.673    87627353.0944   21399490.415 8  21399490.23646  21399494.39146
      1983.649        1545.703  
 119684576.050    93260706.6234   22775216.907 4  22775218.23341  22775219.44541
      5089.727        3966.118  
 119889775.677    93420624.0094   22814265.038 7  22814265.23445  22814270.27045
      6381.461        4972.573  
 110318513.919    85962497.0414   20992915.148 8  20992914.74746  20992916.17746
      1143.911         891.360  
 113017338.261    88065479.2234   21506484.275 7  21506483.76945  21506488.13545
      5366.669        4181.819  
 105455453.390    82173099.4884   20067505.393 8  20067505.50446  20067508.44846
      3137.262        2444.612  
 119179835.382    92695439.884    22334247.065 5  22334247.770 5  22334250.463 5
      6493.261        5050.295  
 108688173.979                    20389623.158 7  20389623.377 7                
      1239.856                  
 125960662.878    98151187.2934   23969515.118 6  23969515.36143  23969520.95543
      4607.168        3589.980  
 109078008.591    84838473.375    20455556.920 7  20455556.543 7  20455562.851 7
      1093.575         850.561  
 103932499.455    80836412.984    19442723.705 8  19442723.328 8  19442727.464 7
      3815.688        2967.752  
 108261561.616    84203460.877    20259676.624 7  20259676.572 7  20259680.525 7
      5927.720        4610.444  
 119075343.475    92786000.7934   22659285.892 7  22659284.81545  22659289.11045
      -155.764        -121.376  
 11  5 30  7 29 30.0000000  0 15G30G 4G 2G 7G23G10R21G13R 6R14G16R 3
                                R 5R15G20                           
 124726144.686    97189222.0174   23734596.763 6  23734596.39243  23734602.09343
      3257.958        2538.685  
 112445156.208    87619622.0774   21397602.246 7  21397602.18346  21397606.48246
      1985.060        1546.800  
 119659123.680    93240873.6454   22770372.051 4  22770371.77341  22770373.37841
      5091.403        3967.285  
 119857860.519    93395755.0574   22808192.536 7  22808192.28045  22808197.06845
      6384.850        4975.210  
 110312787.801    85958035.1254   20991825.752 8  20991825.09646  20991826.50246
      1146.654         893.498  
 112990497.766    88044564.5514   21501377.388 7  21501376.27645  21501380.72245
      5369.506        4184.023  
 120198284.684                    22461907.013 4                                
      1506.437                  
 105439761.834    82160872.3014   20064519.595 8  20064519.57146  20064522.45246
      3139.512        2446.371  
 119147360.344    92670181.545    22328159.173 5  22328160.784 4  22328165.583 5
      6496.887        5053.112  
 108681973.683                    20388460.947 7  20388460.784 7                
      1240.361                  
 125937622.929    98133234.0924   23965132.326 6  23965131.39943  23965136.94543
      4608.879        3591.321  
 109072539.793    84834219.867    20454530.483 7  20454530.520 7  20454536.941 7
      1094.191         851.036  
 103913415.485    80821569.894    19439154.082 8  19439153.565 8  19439157.285 7
      3817.903        2969.479  
 108231920.566    84180406.729    20254129.854 7  20254129.442 7  20254133.631 7
      5928.750        4611.251  
 119076114.120    92786601.2854   22659432.607 7  22659431.52045  22659435.64745
      -152.358        -118.718  
 11  5 30  7 29 35.0000000  0 15G30G 4G 2G 7G23G10R21G13R 6R14G16R 3
                                R 5R15G20                           
 124709854.589    97176528.4374   23731496.248 6  23731495.72343  23731502.88143
      3258.528        2539.102  
 112435228.326    87611886.0654   21395713.148 8  21395712.91146  21395717.34346
      1986.200        1547.681  
 119633662.290    93221033.6154   22765525.850 4  22765528.17541  22765526.55141
      5091.698        3967.536  
 119825929.871    93370874.0344   22802116.902 7  22802116.48145  22802120.88245
      6387.816        4977.512  
 110307047.812    85953562.4004   20990733.287 8  20990732.79546  20990734.32446
      1149.467         895.682  
 112963643.406    88023639.0754   21496267.458 7  21496266.21545  21496270.78245
      5372.288        4186.207  
 120190756.393    93481663.343    22460504.217 4  22460500.005 4  22460501.530 5
      1506.168        1171.470  
 105424059.980    82148637.0894   20061531.394 8  20061531.63646  20061534.46346
      3141.409        2447.843  
 119114865.212    92644907.573    22322074.108 5  22322072.100 4  22322075.181 5
      6501.729        5056.882  
 108675771.448                    20387297.323 7  20387297.440 7                
      1240.878                  
 125914573.748    98115273.6844   23960747.679 6  23960746.05543  23960750.67443
      4610.662        3592.740  
 109067068.561    84829964.450    20453504.074 7  20453503.688 7  20453510.776 7
      1094.503         851.273  
 103894321.547    80806719.056    19435581.866 8  19435581.456 8  19435585.402 7
      3819.656        2970.847  
 108202274.796    84157348.920    20248581.689 7  20248581.501 7  20248585.714 7
      5929.724        4611.999  
 119076868.751    92787189.3014   22659576.141 7  22659575.11545  22659579.22145
      -149.292        -116.340  
 11  5 30  7 29 40.0000000  0 15G30G 4G 2G 7G23G10R21G13R 6R14G16R 3
                                R 5R15G20                           
 124693559.560    97163831.0234   23728395.462 6  23728395.47843  23728402.57643
      3259.156        2539.623  
 112425294.349    87604145.3004   21393822.424 7  21393822.50346  21393826.92346
      1987.291        1548.536  
 119608192.104    93201186.6874   22760679.820 4  22760680.83741  22760682.42141
      5095.452        3970.525  
 119793984.027    93345981.1734   22796038.654 7  22796037.76545  22796041.52745
      6390.543        4979.636  
 110301294.264    85949079.1054   20989638.747 8  20989638.00546  20989639.46346
      1152.110         897.761  
 112936775.556    88002703.0904   21491154.583 7  21491153.53845  21491158.06045
      5375.080        4188.383  
 120183225.635    93475806.035    22459092.694 3  22459092.205 4  22459094.773 5
      1506.329        1171.615  
 105408348.110    82136394.0694   20058541.919 8  20058541.78746  20058544.61546
      3143.401        2449.396  
 119082350.462    92619618.315    22315979.904 5  22315979.074 4  22315981.147 4
      6505.025        5059.466  
 108669567.541                    20386132.960 7  20386132.983 7                
      1240.921                  
 125891515.670    98097306.3694   23956359.076 6  23956358.02643  23956362.77843
      4612.420        3594.087  
 109061595.182    84825707.369    20452478.355 7  20452477.794 7  20452484.326 7
      1094.878         851.579  
 103875217.874    80791860.649    19432008.623 8  19432007.646 8  19432011.555 7
      3821.655        2972.404  
 108172624.355    84134287.473    20243032.448 7  20243032.639 7  20243036.962 7
      5930.451        4612.567  
 119077607.675    92787765.0784   22659716.080 7  22659715.63145  22659719.82345
      -146.219        -113.941  
 11  5 30  7 29 45.0000000  0 15G30G 4G 2G 7G23G10R21G13R 6R14G16R 3
                                R 5R15G20                           
 124677259.684    97151129.8234   23725293.736 6  23725293.93443  23725300.85143
      3260.556        2540.692  
 112415354.315    87596399.8174   21391930.987 8  21391931.06946  21391935.42746
      1988.590        1549.552  
 119582713.441    93181333.1664   22755832.657 4  22755832.63841  22755832.93041
      5096.292        3971.077  
 119762023.191    93321076.6244   22789956.126 7  22789955.79845  22789959.41345
      6393.655        4982.075  
 110295527.289    85944585.3544   20988541.532 8  20988540.62646  20988542.14346
      1154.731         899.787  
 112909894.356    87981756.6984   21486038.998 7  21486037.98145  21486042.39745
      5377.632        4190.357  
 120175692.526    93469946.910    22457683.842 3  22457685.346 3  22457687.229 5
      1506.688        1171.889  
 105392626.384    82124143.3714   20055550.401 8  20055550.00146  20055552.83946
      3145.331        2450.906  
 119049816.127    92594313.812    22309883.053 5  22309882.124 4  22309883.539 4
      6508.936        5062.510  
 108663362.222                    20384968.522 7  20384968.755 7                
      1241.203                  
 125868448.875    98079332.2554   23951969.648 6  23951969.16443  23951972.96343
      4614.409        3595.647  
 109056119.652    84821448.624    20451451.781 7  20451451.719 7  20451457.656 7
      1095.339         851.931  
 103856104.778    80776994.903    19428432.778 8  19428432.203 8  19428436.076 7
      3823.536        2973.871  
 108142969.748    84111222.781    20237483.015 7  20237483.250 7  20237487.587 7
      5931.287        4613.220  
 119078331.081    92788328.7624   22659853.848 7  22659853.18645  22659857.40245
      -143.114        -111.518  
 11  5 30  7 29 50.0000000  0 15G30G 4G 2G 7G23G10R21G13R 6R14G16R 3
                                R 5R15G20                           
 124660955.101    97138424.9584   23722192.674 6  23722192.34643  23722198.38743
      3261.505        2541.422  
 112405408.439    87588649.7764   21390038.682 8  21390038.48146  21390042.88646
      1989.682        1550.403  
 119557226.166    93161473.0114   22750981.459 4  22750980.96041  22750986.33441
      5098.054        3972.575  
 119730047.398    93296160.4264   22783871.128 7  22783870.98445  22783874.53945
      6396.736        4984.468  
 110289746.888    85940081.1404   20987441.435 8  20987440.73146  20987442.14646
      1157.304         901.799  
 112882999.839    87960799.9364   21480920.848 7  21480919.94045  21480924.26445
      5380.076        4192.254  
 120168156.915    93464085.828    22456275.346 3  22456279.150 3  22456278.982 5
      1507.674        1172.635  
 105376894.829    82111885.0144   20052556.878 8  20052556.38046  20052559.24746
      3147.191        2452.357  
 119017262.246    92568994.119    22303781.804 5  22303782.160 5  22303783.426 4
      6513.061        5065.724  
 108657155.273                    20383805.305 7  20383804.775 7                
      1241.465                  
 125845373.413    98061351.3804   23947579.265 6  23947578.56843  23947582.06843
      4615.907        3596.822  
 109050641.857    84817188.116    20450424.433 7  20450424.351 7  20450430.372 7
      1095.708         852.205  
 103836982.219    80762121.806    19424855.223 8  19424854.923 8  19424858.812 7
      3825.299        2975.233  
 108113311.045    84088154.897    20231933.521 7  20231933.205 7  20231937.453 7
      5932.120        4613.874  
 119079038.934    92788880.3294   22659989.080 7  22659987.90545  22659992.36145
      -140.048        -109.120  
 11  5 30  7 29 55.0000000  0 14G30G 4G 2G 7G23G10G13R 6R14G16R 3R 5
                                R15G20                              
 124644645.835    97125716.4424   23719088.710 6  23719089.11243  23719094.68843
      3262.338        2542.092  
 112395456.657    87580895.1324   21388144.600 8  21388144.78246  21388149.08146
      1990.906        1551.358  
 119531730.496    93141606.2234   22746133.064 4  22746129.74841  22746134.03241
      5099.858        3973.902  
 119698056.735    93271232.6374   22777783.762 7  22777783.36045  22777786.86145
      6399.766        4986.826  
 110283953.141    85935566.5314   20986338.735 8  20986338.29146  20986339.77146
      1160.113         903.987  
 112856092.115    87939832.8774   21475800.683 7  21475799.58345  21475803.83645
      5382.783        4194.370  
 105361153.511    82099619.0554   20049561.054 8  20049560.89346  20049563.81546
      3149.214        2453.933  
 118984688.980    92543659.364    22297679.703 5  22297677.981 5  22297680.593 4
      6516.776        5068.585  
 108650946.892                    20382641.154 7  20382640.089 7                
      1241.723                  
 125822289.385    98043363.8354   23943186.060 6  23943185.55243  23943189.61743
      4617.684        3598.213  
 109045161.967    84812925.968    20449396.039 7  20449396.177 7  20449402.582 7
      1096.240         852.635  
 103817850.189    80747241.333    19421276.211 8  19421275.746 8  19421279.712 7
      3827.318        2976.809  
 108083648.051    84065083.682    20226382.497 7  20226382.024 7  20226386.421 7
      5932.948        4614.515  
 119079731.345    92789419.8644   22660120.358 7  22660119.56045  22660124.16545
      -136.831        -106.629  
 11  5 30  7 30  0.0000000  0 14G30G 4G 2G 7G23G10G13R 6R14G16R 3R 5
                                R15G20                              
 124628332.419    97113004.6964   23715984.535 6  23715984.65043  23715990.54243
      3262.988        2542.584  
 112385499.566    87573136.3584   21386250.374 8  21386250.09546  21386254.25046
      1991.904        1552.130  
 119506226.930    93121733.2564   22741281.532 4  22741277.12841  22741280.59341
      5101.509        3975.105  
 119666051.771    93246293.7034   22771693.040 7  22771692.95845  22771696.41345
      6402.508        4988.968  
 110278146.575    85931041.9314   20985234.211 8  20985233.38546  20985234.84446
      1162.647         905.958  
 112829171.659    87918855.8934   21470678.114 7  21470677.01045  21470680.89445
      5385.324        4196.360  
 105345402.966    82087345.8994   20046563.730 8  20046563.70346  20046566.58646
      3150.930        2455.272  
 118952096.801    92518309.880    22291566.247 5  22291567.976 4  22291573.416 4
      6520.229        5071.265  
 108644737.588                    20381475.622 7  20381475.203 7                
      1241.950                  
 125799197.363    98025370.0824   23938791.192 6  23938790.41743  23938795.25543
      4619.384        3599.485  
 109039680.664    84808662.729    20448368.715 7  20448368.585 7  20448374.582 7
      1096.300         852.674  
 103798709.408    80732354.058    19417695.864 8  19417695.301 8  19417698.865 7
      3828.988        2978.108  
 108053981.462    84042009.670    20220829.866 7  20220829.930 7  20220834.727 7
      5933.771        4615.151  
 119080408.809    92789947.7424   22660249.534 7  22660248.55745  22660253.04545
      -133.972        -104.392  
 11  5 30  7 30  5.0000000  0 15G30G 4G 2G 7G23G10R21G13R 6R14G16R 3
                                R 5R15G20                           
 124612014.856    97100289.7244   23712878.988 6  23712878.84143  23712885.23643
      3264.004        2543.355  
 112375537.220    87565373.4904   21384354.423 8  21384354.45646  21384358.52846
      1992.937        1552.939  
 119480715.575    93101854.3144   22736426.395 4  22736423.46341  22736424.63641
      5103.369        3976.579  
 119634032.558    93221343.6744   22765599.902 7  22765599.82945  22765603.37645
      6405.217        4991.079  
 110272327.303    85926507.4264   20984126.499 8  20984126.06746  20984127.59146
      1165.046         907.823  
 112802238.612    87897869.1064   21465552.892 7  21465551.66545  21465555.88245
      5387.778        4198.267  
 120145489.649    93446497.170    22452048.984 3  22452050.161 3  22452051.066 5
      1509.116        1173.794  
 105329643.252    82075065.6014   20043565.040 8  20043564.67746  20043567.61746
      3152.780        2456.715  
 118919485.793    92492945.778    22285458.896 5  22285455.650 4  22285461.011 4
      6523.504        5073.832  
 108638527.539                    20380310.169 7  20380310.281 7                
      1242.028                  
 125776097.343    98007370.0794   23934394.883 6  23934394.60943  23934399.34043
      4620.712        3600.543  
 109034198.004    84804398.440    20447341.257 7  20447341.156 7  20447346.434 7
      1096.677         852.984  
 103779559.808    80717459.925    19414113.092 8  19414112.855 8  19414116.639 7
      3830.774        2979.499  
 108024311.235    84018932.831    20215277.202 7  20215277.347 7  20215282.072 7
      5934.486        4615.716  
 119081071.379    92790464.0244   22660375.002 7  22660374.84545  22660379.29145
      -131.148        -102.195  
 11  5 30  7 30 10.0000000  0 15G30G 4G 2G 7G23G10R21G13R 6R14G16R 3
                                R 5R15G20                           
 124595693.443    97087571.7494   23709772.188 6  23709772.45443  23709779.05743
      3264.680        2543.897  
 112365569.747    87557606.6274   21382458.070 8  21382457.78246  21382461.87546
      1994.064        1553.821  
 119455196.694    93081969.4224   22731571.523 4  22731566.11541  22731570.48341
      5104.983        3977.851  
 119601999.282    93196382.6954   22759504.120 7  22759503.98445  22759507.72945
      6407.978        4993.230  
 110266495.469    85921963.1314   20983016.695 8  20983016.26946  20983017.88746
      1167.629         909.845  
 112775293.130    87876872.6284   21460424.684 7  21460423.84645  21460428.55145
      5390.632        4200.483  
 120137946.758    93440630.411    22450643.631 4  22450641.179 3  22450642.054 5
      1508.964        1173.646  
 105313874.560    82062778.3064   20040564.164 8  20040564.00746  20040567.00546
      3154.661        2458.190  
 118886856.079    92467567.110    22279343.802 5  22279340.853 4  22279346.029 4
      6527.551        5076.980  
 108632316.648                    20379145.234 7  20379144.976 7                
      1242.324                  
 125752989.475    97989363.9734   23929998.394 6  23929997.05843  23930001.64743
      4622.276        3601.779  
 109028714.202    84800133.262    20446313.044 8  20446312.890 7  20446318.091 7
      1097.006         853.231  
 103760401.730    80702559.200    19410529.680 8  19410528.922 8  19410532.964 7
      3832.388        2980.737  
 107994637.833    83995853.520    20209724.353 7  20209724.582 7  20209729.153 7
      5935.211        4616.289  
 119081719.220    92790968.8324   22660498.890 7  22660498.25145  22660502.68945
      -127.936         -99.691  
 11  5 30  7 30 15.0000000  0 14G30G 4G 2G 7G23G10G13R 6R14G16R 3R 5
                                R15G20                              
 124579367.716    97074850.3904   23706665.849 6  23706665.86943  23706671.86443
      3265.499        2544.590  
 112355596.769    87549835.4694   21380559.857 8  21380559.98146  21380564.07946
      1995.037        1554.576  
 119429669.812    93062078.3464   22726708.623 4  22726707.55441  22726712.43441
      5105.412        3978.226  
 119569951.535    93171410.4324   22753405.561 7  22753405.54645  22753409.21545
      6410.901        4995.512  
 110260650.634    85917408.7094   20981904.354 8  20981904.04646  20981905.67346
      1170.187         911.834  
 112748334.845    87855866.1704   21455294.934 7  21455293.77145  21455298.61645
      5392.977        4202.326  
 105298096.469    82050483.6874   20037561.474 8  20037561.53546  20037564.47346
      3156.544        2459.656  
 118854207.353    92442173.636    22273222.746 4  22273223.119 4  22273229.308 4
      6532.074        5080.497  
 108626104.709                    20377979.605 7  20377979.359 7                
      1242.448                  
 125729873.455    97971351.5144   23925600.205 6  23925599.21743  23925602.53243
      4623.941        3603.080  
 109023228.636    84795866.705    20445283.978 7  20445283.678 7  20445289.487 7
      1097.212         853.388  
 103741234.584    80687651.418    19406943.620 8  19406943.110 8  19406947.566 7
      3834.213        2982.172  
 107964960.702    83972771.305    20204170.340 7  20204170.910 7  20204175.392 7
      5935.858        4616.782  
 119082351.988    92791461.8904   22660619.594 7  22660618.58045  22660623.13745
      -125.047         -97.427  
 11  5 30  7 30 20.0000000  0 14G30G 4G 2G 7G23G10G13R 6R14G16R 3R 5
                                R15G20                              
 124563038.132    97062126.0324   23703560.210 6  23703559.24343  23703564.27743
      3266.298        2545.165  
 112345618.720    87542060.3594   21378661.276 7  21378661.19446  21378665.32646
      1996.022        1555.344  
 119404135.212    93042181.3044   22721848.232 4  22721848.74041  22721854.02241
      5108.520        3980.601  
 119537889.740    93146427.2204   22747304.571 7  22747304.55645  22747308.08245
      6413.669        4997.668  
 110254793.244    85912844.5034   20980789.828 8  20980789.46546  20980791.29646
      1172.622         913.732  
 112721364.189    87834850.0794   21450163.150 8  21450161.54045  21450166.30645
      5395.355        4204.170  
 105282309.400    82038182.0734   20034557.588 8  20034557.42447  20034560.32646
      3158.248        2460.973  
 118821539.999    92416765.699    22267103.764 4  22267103.092 4  22267108.311 4
      6535.273        5083.019  
 108619892.097                    20376813.982 7  20376813.946 7                
      1242.496                  
 125706749.679    97953332.9894   23921199.062 6  23921198.72543  23921202.32943
      4625.224        3604.101  
 109017741.778    84791599.141    20444255.348 7  20444254.565 7  20444260.486 7
      1097.398         853.532  
 103722058.867    80672736.980    19403356.793 8  19403356.220 8  19403360.442 7
      3835.907        2983.491  
 107935280.221    83949686.489    20198616.774 7  20198616.421 7  20198620.935 7
      5936.417        4617.210  
 119082970.064    92791943.4894   22660737.053 7  22660736.21645  22660740.80545
      -122.195         -95.205  
 11  5 30  7 30 25.0000000  0 14G30G 4G 2G 7G23G10G13R 6R14G16R 3R 5
                                R15G20                              
 124546704.741    97049398.7124   23700451.570 6  23700451.34143  23700455.65043
      3267.193        2545.882  
 112335635.643    87534281.3354   21376761.943 8  21376761.57246  21376765.69346
      1997.052        1556.138  
 119378593.230    93022278.4894   22716988.460 4  22716990.23541  22716993.89841
      5109.039        3980.946  
 119505814.061    93121433.1894   22741200.512 7  22741200.97845  22741204.32745
      6416.408        4999.787  
 110248923.340    85908270.5514   20979673.378 8  20979672.52246  20979674.29146
      1175.145         915.691  
 112694381.243    87813824.4094   21445028.492 7  21445027.10045  21445031.49745
      5397.960        4206.184  
 105266513.457    82025873.5454   20031551.754 8  20031551.66446  20031554.50746
      3160.128        2462.435  
 118788854.245    92391343.456    22260979.188 4  22260978.651 4  22260981.848 4
      6538.629        5085.607  
 108613678.860                    20375649.005 7  20375648.948 7                
      1242.618                  
 125683618.278    97935308.5204   23916795.884 6  23916796.88443  23916800.15343
      4626.800        3605.302  
 109012253.640    84787330.582    20443225.694 7  20443225.594 7  20443231.364 7
      1097.692         853.755  
 103702874.785    80657816.029    19399768.290 8  19399767.646 8  19399771.657 7
      3837.647        2984.835  
 107905596.429    83926599.100    20193061.677 7  20193061.375 7  20193065.915 7
      5936.969        4617.634  
 119083573.534    92792413.7154   22660852.016 7  22660850.93445  22660855.76445
      -119.226         -92.909  
 11  5 30  7 30 30.0000000  0 14G30G 4G 2G 7G23G10G13R 6R14G16R 3R 5
                                R15G20                              
 124530367.554    97036668.4304   23697341.784 6  23697342.43343  23697346.50143
      3268.064        2546.552  
 112325647.455    87526498.3304   21374861.149 8  21374860.88046  21374864.96546
      1998.182        1557.028  
 119353043.775                    22712130.012 4                                
      5110.600                  
 119473724.410    93096428.2704   22735094.668 7  22735094.64245  22735097.87845
      6419.220        5001.987  
 110243040.856    85903686.7894   20978553.970 8  20978553.14446  20978555.00546
      1177.680         917.677  
 112667385.971    87792789.1314   21439891.200 7  21439890.02745  21439894.28545
      5400.205        4207.957  
 105250708.585    82013558.0584   20028543.915 7  20028544.10646  20028546.86146
      3161.841        2463.792  
 118756149.662    92365906.522    22254847.670 4  22254849.985 4  22254850.359 4
      6542.696        5088.750  
 108607465.037                    20374483.880 7  20374483.586 7                
      1242.820                  
 125660479.133    97917278.0224   23912392.363 6  23912392.79543  23912397.03543
      4628.495        3606.641  
 109006764.178    84783060.996    20442196.038 7  20442196.063 7  20442201.842 7
      1097.920         853.942  
 103683682.240    80642888.494    19396178.458 8  19396177.520 8  19396181.377 7
      3839.265        2986.101  
 107875909.610    83903509.352    20187505.904 7  20187505.917 7  20187510.545 7
      5937.549        4618.094  
 119084162.306    92792872.4934   22660963.965 7  22660962.92945  22660967.90245
      -116.406         -90.699  
 11  5 30  7 30 35.0000000  0 14G30G 4G 2G 7G23G10G13R 6R14G16R 3R 5
                                R15G20                              
 124514026.632    97023935.2294   23694232.280 6  23694231.98643  23694236.70043
      3268.361        2546.765  
 112315654.286    87518711.4404   21372959.376 8  21372959.22946  21372963.37746
      1999.084        1557.725  
 119327486.836                    22707268.437 4                                
      5112.048                  
 119441620.870    93071412.5344   22728986.305 7  22728985.39545  22728988.71445
      6421.982        5004.144  
 110237145.921    85899093.3254   20977431.708 8  20977431.36446  20977433.24146
      1180.197         919.629  
 112640378.418    87771744.2834   21434751.721 7  21434750.57745  21434754.86745
      5402.814        4209.999  
 105234894.841    82001235.6544   20025534.892 8  20025534.87146  20025537.62946
      3163.566        2465.119  
 118723426.836    92340455.422    22248715.508 4  22248718.235 4  22248718.673 4
      6546.267        5091.582  
 108601250.566                    20373317.748 7  20373317.135 7                
      1242.872                  
 125637332.422    97899241.6384   23907988.166 6  23907987.92243  23907992.67643
      4630.074        3607.856  
 109001273.484    84778790.455    20441166.303 7  20441166.358 7  20441172.001 7
      1098.231         854.173  
 103664481.207    80627954.355    19392586.127 8  19392585.565 8  19392589.333 7
      3841.032        2987.472  
 107846219.768    83880417.256    20181950.351 7  20181950.095 7  20181954.522 7
      5938.459        4618.809  
 119084736.488    92793319.8884   22661073.111 7  22661072.24945  22661077.32745
      -113.287         -88.267  
 11  5 30  7 30 40.0000000  0 14G30G 4G 2G 7G23G10G13R 6R14G16R 3R 5
                                R15G20                              
 124497682.036    97011199.1774   23691121.477 6  23691121.39443  23691127.07643
      3269.043        2547.308  
 112305656.202    87510920.7194   21371056.772 8  21371056.68446  21371060.76546
      2000.062        1558.496  
 119301922.457                    22702403.797 5                                
      5113.378                  
 119409503.539    93046386.0554   22722874.329 7  22722873.61445  22722877.07645
      6424.875        5006.396  
 110231238.616    85894490.2234   20976307.694 8  20976307.35746  20976309.08746
      1182.552         921.486  
 112613358.718    87750689.9724   21429609.970 8  21429608.82245  21429613.19745
      5405.171        4211.824  
 105219072.293    81988906.3964   20022524.154 8  20022523.95846  20022526.69346
      3165.433        2466.573  
 118690685.660    92314990.101    22242583.244 4  22242582.090 4  22242584.499 4
      6549.971        5094.438  
 108595035.520                    20372151.096 7  20372150.981 7                
      1242.864                  
 125614178.159    97881199.3704   23903581.822 6  23903581.67243  23903586.36243
      4631.729        3609.129  
 108995781.638    84774519.019    20440136.538 7  20440136.783 7  20440142.019 7
      1098.532         854.412  
 103645271.962    80613013.830    19388992.447 8  19388992.173 8  19388995.830 7
      3842.655        2988.727  
 107816526.767    83857322.704    20176393.165 7  20176393.509 7  20176397.984 7
      5938.828        4619.093  
 119085296.160    92793755.9914   22661179.331 7  22661178.77545  22661183.58745
      -110.608         -86.178  
 11  5 30  7 30 45.0000000  0 13G30G 4G 2G 7G23G10G13R14G16R 3R 5R15
                                G20                                 
 124481334.000    96998460.4484   23688009.944 6  23688010.20543  23688016.58543
      3270.079        2548.126  
 112295653.390    87503126.3184   21369152.988 8  21369153.14446  21369157.37046
      2001.052        1559.266  
 119276350.953                    22697535.933 5                                
      5115.290                  
 119377372.680    93021349.0294   22716759.789 7  22716759.45945  22716762.57245
      6427.578        5008.504  
 110225319.102    85889877.6104   20975181.241 8  20975180.88346  20975182.69046
      1185.043         923.410  
 112586327.090    87729626.3674   21424465.540 7  21424464.74844  21424469.24944
      5407.510        4213.654  
 105203241.202    81976570.4814   20019511.591 8  20019511.40247  20019514.16046
      3167.038        2467.823  
 108588820.149                    20370986.223 7  20370985.364 7                
      1243.158                  
 125591016.657    97863151.4624   23899174.148 6  23899173.75643  23899179.18743
      4633.075        3610.198  
 108990288.860    84770246.856    20439106.294 7  20439106.608 7  20439112.066 7
      1098.647         854.505  
 103626054.565    80598066.967    19385397.598 8  19385397.094 8  19385400.884 7
      3844.219        2989.945  
 107786830.937    83834225.956    20170836.259 7  20170836.250 7  20170840.701 7
      5939.476        4619.592  
 119085841.484    92794180.9134   22661283.014 7  22661282.59545  22661287.19545
      -107.783         -83.976  
 11  5 30  7 30 50.0000000  0 13G30G 4G 2G 7G23G10G13R14G16R 3R 5R15
                                G20                                 
 124464982.831    96985719.2894   23684899.750 6  23684899.06143  23684905.14943
      3270.586        2548.490  
 112285646.201    87495328.5054   21367248.816 8  21367248.89546  21367253.09646
      2001.948        1559.961  
 119250772.681                    22692665.984 5                                
      5116.545                  
 119345228.562    92996301.6654   22710642.394 7  22710642.75245  22710645.65645
      6430.303        5010.633  
 110219387.683    85885255.7214   20974052.756 8  20974052.18246  20974053.85246
      1187.412         925.268  
 112559283.871    87708553.7364   21419319.159 7  21419318.54344  21419323.41044
      5409.920        4215.514  
 105187401.856    81964228.1324   20016497.448 8  20016497.30747  20016500.05646
      3168.700        2469.113  
 108582604.716                    20369820.548 7  20369819.745 7                
      1243.266                  
 125567848.212    97845098.1364   23894765.246 6  23894765.08943  23894770.21643
      4634.449        3611.266  
 108984795.437    84765974.186    20438076.764 7  20438076.330 7  20438082.032 7
      1098.751         854.590  
