     2.10           OBSERVATION DATA    M (MIXED)           RINEX VERSION / TYPE
Pinnacle 1.00                           30-MAY-11 20:31     PGM / RUN BY / DATE
build April 19, 2002                                        COMMENT
-Unknown-           -Unknown-                               OBSERVER / AGENCY
         Begin Pinnacle project                             COMMENT
VG_GPS                                                      COMMENT
                                                            COMMENT
                                                            COMMENT
May 30, 2011 8:29:02 pm                                     COMMENT
                                                            COMMENT
                                                            COMMENT
C:\data\VG_GPS\projekt\Pinnacle.dbd                         COMMENT
         End Pinnacle project                               COMMENT
                                                            COMMENT
1002                                                        MARKER NAME
1002                                                        MARKER NUMBER
8QG4AWP4FEO         TPS HIPER           3.3 Dec,22,2008 p6  REC # / TYPE / VERS
-Unknown-           TPSPG_A1                                ANT # / TYPE
  3917539.9259  1195854.2218  4873694.5416                  APPROX POSITION XYZ
        1.3400        0.0000        0.0000                  ANTENNA: DELTA H/E/N
     1     1                                                WAVELENGTH FACT L1/2
     7    L1    L2    C1    P1    P2    D1    D2            # / TYPES OF OBSERV
     5.000                                                  INTERVAL
  2011     5    30    10    56   50.0000000     GPS         TIME OF FIRST OBS
  2011     5    30    11    21   50.0000000     GPS         TIME OF LAST OBS
    15                                                      LEAP SECONDS
    16                                                      # OF SATELLITES
   R 6   301   301   301   301   301   301   301            PRN / # OF OBS
   R 7   301   301   301   301   301   301   301            PRN / # OF OBS
   R 8   301   301   301   301   301   301   301            PRN / # OF OBS
   R 9   301   301   301   301   301   301   301            PRN / # OF OBS
   R10   301   301   301   301   301   301   301            PRN / # OF OBS
   R16   301   301   301   301   301   301   301            PRN / # OF OBS
   R17   301   301   301   301   301   301   301            PRN / # OF OBS
   R18    97    95    97    95    95    97    95            PRN / # OF OBS
   G 5   301   301   301   301   301   301   301            PRN / # OF OBS
   G 7   301   301   301   301   301   301   301            PRN / # OF OBS
   G 8   301   301   301   301   301   301   301            PRN / # OF OBS
   G10   301   301   301   301   301   301   301            PRN / # OF OBS
   G15   301   301   301   301   301   301   301            PRN / # OF OBS
   G19   254   254   254   254   254   254   254            PRN / # OF OBS
   G26   301   301   301   301   301   301   301            PRN / # OF OBS
   G28   301   301   301   301   301   301   301            PRN / # OF OBS
SE TPS 730d626d                                             COMMENT
                                                            END OF HEADER
 11  5 30 10 56 50.0000000  0 14R 7G28R 8G10R17G26R16G 7R 9R10G15G 8
                                R 6G 5                              
 105601377.249    82134421.583    19727223.988 8  19727222.490 8  19727220.514 7
      4595.120        3573.977  
 115068372.832    89663689.5194   21896782.616 7  21896782.19245  21896785.98945
      5776.567        4501.214  
 120845408.023    93990891.687    22567028.228 7  22567027.505 6  22567028.610 7
      7511.754        5842.472  
 122069023.056    95118738.8674   23228964.366 6  23228962.96044  23228969.21144
      -123.900         -96.529  
 123957830.339    96411660.321    23164482.780 6  23164481.350 5  23164485.871 4
      4723.299        3673.678  
 109802819.038    85560660.2924   20894781.693 8  20894781.66946  20894785.65546
      5875.175        4578.057  
 106675643.996    82969965.591    19969904.436 8  19969904.559 8  19969908.444 7
      1228.193         955.267  
 114273173.422    89044052.4164   21745462.258 7  21745462.20346  21745465.13946
      1010.422         787.346  
 104273768.378    81101840.893    19527126.745 8  19527126.710 8  19527131.053 7
      5033.460        3914.915  
 123600018.641    96133375.298    23187048.313 6  23187048.977 6  23187056.838 5
      7282.059        5663.809  
 128202435.891    99898014.5464   24396112.717 6  24396112.70443  24396116.91043
      6844.040        5332.996  
 107163669.194    83504176.3674   20392567.710 8  20392567.40146  20392571.19046
      2764.310        2154.010  
 110720381.220    86115868.385    20748951.005 7  20748950.788 7  20748954.682 7
        48.025          37.357  
 110739799.955    86290773.6914   21073083.786 8  21073083.76946  21073086.68546
      2394.671        1865.977  
 11  5 30 10 56 55.0000000  0 14R 7G28R 8G10R17G26R16G 7R 9R10G15G 8
                                R 6G 5                              
 105578404.349    82116553.769    19722933.049 8  19722930.969 8  19722928.862 7
      4594.154        3573.229  
 115039487.682    89641181.6144   21891286.779 7  21891285.95145  21891289.41945
      5777.828        4502.197  
 120807844.488    93961675.616    22560013.446 6  22560013.141 6  22560013.763 7
      7513.602        5843.919  
 122069637.019    95119217.2644   23229081.477 7  23229079.88044  23229086.05244
      -121.486         -94.663  
 123934216.589    96393294.088    23160071.140 6  23160069.769 5  23160072.187 4
      4722.516        3673.074  
 109773440.291    85537767.7624   20889191.150 7  20889191.03646  20889195.05146
      5876.322        4578.946  
 106669500.948    82965187.662    19968754.229 8  19968754.417 8  19968758.377 7
      1229.213         956.061  
 114268116.102    89040111.6444   21744500.000 7  21744499.74946  21744502.63946
      1012.385         788.872  
 104248600.436    81082265.831    19522413.580 8  19522413.502 8  19522417.815 7
      5033.693        3915.086  
 123563602.643    96105051.745    23180218.417 6  23180217.860 6  23180225.421 5
      7284.438        5665.679  
 128168207.110    99871342.7884   24389598.818 6  24389599.28743  24389603.61443
      6847.014        5335.302  
 107149845.404    83493404.5804   20389937.356 8  20389936.68746  20389940.60246
      2765.286        2154.765  
 110720139.429    86115680.316    20748906.179 7  20748905.751 7  20748909.689 7
        48.675          37.866  
 110727826.729    86281443.9004   21070805.473 8  21070805.24646  21070808.29346
      2394.764        1866.054  
 11  5 30 10 57  0.0000000  0 14R 7G28R 8G10R17G26R16G 7R 9R10G15G 8
                                R 6G 5                              
 105555435.788    82098689.337    19718641.612 8  19718640.213 8  19718638.149 7
      4593.406        3572.653  
 115010597.457    89618669.7474   21885789.058 7  21885788.68245  21885792.03445
      5778.643        4502.845  
 120770272.034    93932452.608    22552997.674 6  22552996.576 6  22552997.434 7
      7515.508        5845.379  
 122070239.574    95119686.7744   23229196.388 6  23229194.92944  23229200.66644
      -119.252         -92.911  
 123910606.507    96374930.669    23155660.315 6  23155658.984 6  23155659.883 4
      4721.609        3672.375  
 109744055.052    85514870.1734   20883599.421 8  20883599.26946  20883603.23646
      5877.779        4580.085  
 106663352.731    82960405.708    19967603.200 8  19967603.362 8  19967607.594 7
      1230.231         956.849  
 114263049.295    89036163.4794   21743535.423 7  21743535.49246  21743538.40046
      1014.377         790.424  
 104223431.446    81062689.954    19517700.377 8  19517700.396 8  19517704.508 7
      5034.075        3915.390  
 123527175.438    96076719.484    23173386.409 6  23173384.010 6  23173391.744 5
      7286.642        5667.393  
 128133963.406    99844659.3764   24383082.889 6  24383082.89543  24383087.07643
      6850.162        5337.766  
 107136016.575    83482628.8684   20387305.715 8  20387305.08946  20387308.98646
      2766.343        2155.587  
 110719894.708    86115489.968    20748860.285 7  20748859.836 7  20748863.766 7
        49.332          38.371  
 110715853.117    86272113.8124   21068526.207 8  21068526.77846  21068529.84646
      2394.844        1866.111  
 11  5 30 10 57  5.0000000  0 14R 7G28R 8G10R17G26R16G 7R 9R10G15G 8
                                R 6G 5                              
 105532471.796    82080828.455    19714351.443 8  19714350.271 8  19714348.384 7
      4592.200        3571.700  
 114981702.135    89596153.9144   21880290.615 8  21880290.24945  21880293.59345
      5779.571        4503.545  
 120732690.876    93903222.828    22545978.995 6  22545978.579 6  22545979.335 7
      7517.121        5846.646  
 122070830.661    95120147.3594   23229308.658 7  23229307.46144  23229312.88244
      -117.101         -91.266  
 123887000.008    96356570.038    23151246.020 6  23151246.198 5  23151249.339 4
      4720.846        3671.785  
 109714663.305    85491967.5164   20878006.827 8  20878006.22746  20878010.16346
      5878.803        4580.876  
 106657199.284    82955619.692    19966451.129 8  19966451.306 8  19966455.553 7
      1231.135         957.548  
 114257973.069    89032207.9764   21742569.564 8  21742569.52046  21742572.20646
      1016.148         791.808  
 104198261.409    81043113.256    19512987.593 8  19512987.082 8  19512991.003 8
      5034.067        3915.384  
 123490737.104    96048378.565    23166549.628 6  23166548.237 6  23166556.321 5
      7288.847        5669.096  
 128099704.744    99817964.3324   24376563.815 6  24376563.34443  24376567.54143
      6853.102        5340.023  
 107122182.697    83471849.2184   20384673.202 8  20384672.51946  20384676.42446
      2767.131        2156.205  
 110719647.096    86115297.365    20748813.200 7  20748813.368 7  20748817.555 7
        49.732          38.691  
 110703879.115    86262783.4104   21066247.561 8  21066248.18846  21066251.27846
      2394.769        1866.064  
 11  5 30 10 57 10.0000000  0 14R 7G28R 8G10R17G26R16G 7R 9R10G15G 8
                                R 6G 5                              
 105509513.111    82062971.698    19710062.595 8  19710061.415 8  19710059.488 7
      4591.352        3571.059  
 114952802.367    89573634.6174   21874791.177 7  21874790.80045  21874794.34345
      5780.239        4504.099  
 120695101.735    93873986.837    22538958.259 6  22538959.020 6  22538959.756 6
      7518.647        5847.842  
 122071410.891    95120599.4824   23229418.908 7  23229417.93244  23229423.36844
      -115.045         -89.657  
 123863397.663    96338212.681    23146836.036 6  23146834.451 5  23146839.251 4
      4720.078        3671.176  
 109685265.646    85469060.2504   20872412.641 8  20872412.09046  20872415.90646
      5880.168        4581.949  
 106651041.250    82950830.103    19965298.103 8  19965298.538 8  19965302.905 7
      1231.953         958.193  
 114252887.950    89028245.5424   21741601.969 8  21741601.86446  21741604.57746
      1017.872         793.144  
 104173090.832    81023536.140    19508273.827 8  19508273.437 8  19508277.424 8
      5034.167        3915.463  
 123454288.172    96020029.402    23159711.966 6  23159710.589 6  23159718.827 5
      7290.856        5670.681  
 128065431.791    99791258.1524   24370042.340 6  24370041.59243  24370046.13243
      6855.830        5342.185  
 107108344.364    83461066.1014   20382039.731 8  20382039.09846  20382043.13146
      2768.092        2156.961  
 110719397.089    86115102.897    20748766.465 7  20748766.452 7  20748770.472 7
        50.362          39.180  
 110691905.297    86253453.1564   21063969.495 8  21063969.62646  21063972.68546
      2394.811        1866.081  
 11  5 30 10 57 15.0000000  0 14R 7G28R 8G10R17G26R16G 7R 9R10G15G 8
                                R 6G 5                              
 105486559.878    82045119.183    19705774.806 8  19705773.631 8  19705771.545 7
      4590.260        3570.203  
 114923898.326    89551111.9924   21869290.716 7  21869290.30045  21869294.13445
      5781.133        4504.783  
 120657504.693    93844744.702    22531938.108 6  22531937.964 6  22531938.754 6
      7520.027        5848.907  
 122071980.452    95121043.2884   23229527.473 6  23229526.29144  23229531.77044
      -112.546         -87.677  
 123839799.730    96319858.745    23142425.285 5  23142423.860 5  23142428.388 4
      4719.211        3670.489  
 109655862.191    85446148.4744   20866816.963 8  20866816.77846  20866820.70846
      5881.345        4582.861  
 106644878.754    82946037.048    19964144.818 8  19964144.947 8  19964149.392 7
      1232.910         958.925  
 114247794.103    89024276.3074   21740632.709 8  21740632.53246  21740635.48946
      1019.704         794.581  
 104147920.018    81003958.840    19503559.799 8  19503559.606 8  19503563.681 8
      5034.177        3915.471  
 123417828.702    95991672.053    23152872.227 6  23152870.956 6  23152879.215 5
      7292.939        5672.272  
 128031144.604    99764540.8454   24363518.243 6  24363516.94943  24363521.34343
      6858.876        5344.586  
 107094501.753    83450279.6444   20379405.624 8  20379405.01946  20379408.97346
      2768.984        2157.660  
 110719145.006    86114906.818    20748719.136 7  20748718.903 7  20748723.171 7
        50.640          39.395  
 110679931.895    86244123.2264   21061691.066 7  21061691.10746  21061694.21446
      2394.696        1866.004  
 11  5 30 10 57 20.0000000  0 14R 7G28R 8G10R17G26R16G 7R 9R10G15G 8
                                R 6G 5                              
 105463612.126    82027270.930    19701488.301 8  19701486.771 8  19701484.818 7
      4588.800        3569.061  
 114894990.015    89528586.0414   21863789.847 8  21863789.15045  21863793.27445
      5782.031        4505.478  
 120619899.852    93815496.502    22524916.150 6  22524915.543 6  22524916.312 7
      7521.674        5850.201  
 122072539.346    95121478.7784   23229633.810 7  23229632.58944  23229638.47344
      -110.720         -86.273  
 123816206.330    96301508.328    23138016.941 5  23138015.273 5  23138019.649 4
      4718.258        3669.769  
 109626453.138    85423232.3294   20861220.854 8  20861220.41846  20861224.29646
      5882.283        4583.595  
 106638711.813    82941240.532    19962990.172 8  19962990.539 8  19962994.935 7
      1233.783         959.614  
 114242691.580    89020300.3124   21739661.467 7  21739661.51046  21739664.65746
      1021.274         795.794  
 104122749.030    80984381.406    19498845.555 8  19498845.661 8  19498849.582 7
      5034.068        3915.385  
 123381358.930    95963306.693    23146030.494 6  23146029.038 6  23146037.528 5
      7294.906        5673.822  
 127996843.394    99737812.6484   24356991.092 6  24356989.77743  24356994.13843
      6861.597        5346.683  
 107080654.881    83439489.8704   20376770.838 8  20376770.19646  20376773.96946
      2769.740        2158.242  
 110718890.768    86114709.068    20748671.279 7  20748671.078 7  20748675.450 7
        50.978          39.657  
 110667958.888    86234793.6094   21059412.743 8  21059412.80446  21059415.76146
      2394.404        1865.773  
 11  5 30 10 57 25.0000000  0 14R 7G28R 8G10R17G26R16G 7R 9R10G15G 8
                                R 6G 5                              
 105440670.412    82009427.375    19697202.856 8  19697201.205 8  19697199.294 7
      4587.734        3568.237  
 114866078.083    89506057.2764   21858287.865 8  21858287.10945  21858291.67545
      5782.890        4506.142  
 120582287.697    93786242.618    22517892.448 6  22517891.577 6  22517892.501 7
      7523.276        5851.438  
 122073088.206    95121906.4424   23229737.727 6  23229736.62844  23229742.87844
      -108.668         -84.693  
 123792618.110    96283161.935    23133611.410 5  23133608.806 5  23133611.745 4
      4717.133        3668.888  
 109597038.985    85400312.2134   20855623.317 8  20855623.10846  20855626.99746
      5883.473        4584.523  
 106632541.073    82936441.065    19961835.374 8  19961835.409 8  19961839.662 7
      1234.575         960.226  
 114237580.999    89016318.0364   21738688.674 8  21738688.98746  21738692.41946
      1022.940         797.093  
 104097578.426    80964804.271    19494131.666 8  19494131.733 8  19494135.820 8
      5034.074        3915.387  
 123344879.467    95934933.789    23139186.758 6  23139185.818 6  23139193.731 5
      7297.012        5675.446  
 127962528.717    99711073.9484   24350461.676 6  24350459.70943  24350464.10543
      6864.377        5348.868  
 107066804.391    83428697.2764   20374135.448 8  20374134.68446  20374138.44446
      2770.458        2158.793  
 110718635.034    86114510.158    20748624.262 7  20748623.750 7  20748627.755 7
        51.399          39.973  
 110655986.891    86225464.7734   21057134.576 8  21057134.57946  21057137.67346
      2394.394        1865.766  
 11  5 30 10 57 30.0000000  0 14R 7G28R 8G10R17G26R16G 7R 9R10G15G 8
                                R 6G 5                              
 105417734.514    81991588.347    19692918.264 8  19692916.595 8  19692914.617 7
      4586.524        3567.300  
 114837162.337    89483525.5384   21852785.711 7  21852784.78045  21852789.36245
      5783.556        4506.660  
 120544668.309    93756983.098    22510867.223 6  22510866.336 6  22510867.273 7
      7524.486        5852.378  
 122073626.771    95122326.0844   23229840.028 6  23229838.69744  23229845.59044
      -106.743         -83.155  
 123769034.827    96264819.384    23129204.620 6  23129202.894 5  23129204.209 4
      4716.135        3668.129  
 109567619.545    85377387.9724   20850024.674 8  20850024.79746  20850028.53946
      5884.266        4585.151  
 106626366.250    82931638.418    19960679.097 8  19960679.481 8  19960683.971 7
      1235.345         960.829  
 114232462.133    89012329.3034   21737714.500 8  21737714.88646  21737718.38946
      1024.528         798.338  
 104072407.849    80945227.161    19489418.209 8  19489418.090 8  19489422.170 8
      5034.058        3915.385  
 123308390.099    95906553.181    23132341.093 6  23132340.597 6  23132348.640 5
      7298.919        5676.938  
 127928200.339    99684324.5794   24343928.770 6  24343927.02243  24343931.59143
      6866.979        5350.904  
 107052950.044    83417901.6784   20371499.012 8  20371498.26046  20371502.17446
      2771.132        2159.324  
 110718377.567    86114309.900    20748576.135 7  20748575.849 7  20748579.744 7
        51.616          40.142  
 110644015.622    86216136.5074   21054856.613 8  21054856.57646  21054859.63146
      2394.211        1865.616  
 11  5 30 10 57 35.0000000  0 14R 7G28R 8G10R17G26R16G 7R 9R10G15G 8
                                R 6G 5                              
 105394805.297    81973754.514    19688634.867 8  19688633.082 8  19688631.183 7
      4585.034        3566.138  
 114808243.502    89460991.3894   21847283.222 8  21847282.14245  21847286.17545
      5784.027        4507.034  
 120507042.140    93727718.319    22503841.227 6  22503839.832 6  22503840.896 7
      7525.918        5853.511  
 122074155.738    95122738.2464   23229941.182 6  23229939.57944  23229946.27444
      -104.950         -81.753  
 123745457.073    96246481.121    23124795.395 6  23124794.834 5  23124797.858 4
      4714.664        3666.964  
 109538195.548    85354460.1864   20844425.387 8  20844425.57246  20844429.45346
      5885.155        4585.846  
 106620188.116    82926833.198    19959522.509 8  19959522.886 8  19959527.336 7
      1235.863         961.234  
 114227335.719    89008334.6814   21736739.142 8  21736739.40246  21736742.88346
      1025.954         799.453  
 104047238.235    80925650.795    19484705.017 8  19484704.892 8  19484708.801 7
      5033.747        3915.139  
 123271891.568    95878165.437    23125493.929 6  23125493.875 6  23125501.633 5
      7300.525        5678.185  
 127893858.966    99657565.0664   24337393.359 6  24337392.27243  24337396.38843
      6869.584        5352.933  
 107039092.590    83407103.6624   20368861.824 8  20368861.38646  20368865.06146
      2771.717        2159.801  
 110718118.973    86114108.769    20748528.049 7  20748527.519 7  20748531.379 7
        51.724          40.237  
 110632045.850    86206809.4074   21052579.178 8  21052578.82446  21052581.86546
      2393.702        1865.220  
 11  5 30 10 57 40.0000000  0 14R 7G28R 8G10R17G26R16G 7R 9R10G15G 8
                                R 6G 5                              
 105371882.977    81955926.038    19684352.053 8  19684350.819 8  19684349.152 7
      4583.908        3565.269  
 114779321.911    89438455.0864   21841779.882 8  21841778.85545  21841782.24645
      5784.561        4507.459  
 120469409.628    93698448.590    22496811.785 6  22496812.460 6  22496813.296 6
      7526.997        5854.335  
 122074675.372    95123143.1434   23230039.830 6  23230038.57044  23230044.85044
      -103.079         -80.320  
 123721885.372    96228147.594    23120390.328 5  23120389.656 5  23120394.389 4
      4714.011        3666.443  
 109508767.328    85331529.1024   20838825.515 8  20838825.69546  20838829.50346
      5886.104        4586.576  
 106614006.917    82922025.595    19958365.680 8  19958365.881 8  19958370.155 7
      1236.434         961.683  
 114222201.983    89004334.3624   21735762.297 7  21735762.48646  21735765.93646
      1027.451         800.614  
 104022069.903    80906075.428    19479991.801 8  19479991.785 8  19479995.705 7
      5033.604        3915.028  
 123235384.153    95849770.796    23118645.939 6  23118645.390 6  23118653.199 5
      7302.172        5679.470  
 127859504.936    99630795.7124   24330855.505 6  24330854.97143  24330859.42143
      6871.909        5354.724  
 107025232.301    83396303.4354   20366224.331 8  20366223.78446  20366227.47346
      2772.278        2160.220  
 110717859.753    86113907.143    20748479.215 7  20748479.027 7  20748482.913 7
        51.924          40.390  
 110620077.856    86197483.6944   21050301.778 8  21050301.37746  21050304.38346
      2393.358        1864.953  
 11  5 30 10 57 45.0000000  0 14R 7G28R 8G10R17G26R16G 7R 9R10G15G 8
                                R 6G 5                              
 105348967.323    81938102.751    19680071.576 8  19680070.051 8  19680068.272 7
      4582.207        3563.939  
 114750397.629    89415916.6814   21836276.085 8  21836274.85545  21836277.78345
      5785.003        4507.798  
 120431771.050    93669174.159    22489783.805 6  22489783.484 6  22489784.371 6
      7528.125        5855.211  
 122075185.771    95123540.8364   23230137.047 6  23230135.88344  23230142.27844
      -101.373         -78.985  
 123698319.935    96209818.943    23115985.952 6  23115986.458 5  23115991.602 4
      4712.348        3665.144  
 109479334.911    85308594.7504   20833224.907 8  20833224.78646  20833228.70846
      5886.783        4587.112  
 106607822.696    82917215.639    19957207.854 8  19957208.031 8  19957212.234 7
      1236.982         962.104  
 114217061.016    89000328.4024   21734784.100 7  21734784.30746  21734787.50246
      1028.830         801.689  
 103996902.779    80886500.998    19475278.854 8  19475278.759 8  19475282.705 8
      5033.096        3914.631  
 123198867.874    95821369.245    23111794.504 6  23111794.769 6  23111802.915 5
      7303.995        5680.885  
 127825138.270    99604016.5014   24324314.781 6  24324315.17143  24324319.47543
      6874.433        5356.714  
 107011369.234    83385501.0444   20363586.165 8  20363585.62246  20363589.35246
      2772.665        2160.519  
 110717599.821    86113704.961    20748430.800 7  20748430.190 7  20748434.104 7
        51.978          40.439  
 110608111.720    86188159.4294   21048024.225 8  21048024.32546  21048027.32546
      2392.862        1864.560  
 11  5 30 10 57 50.0000000  0 14R 7G28R 8G10R17G26R16G 7R 9R10G15G 8
                                R 6G 5                              
 105326059.708    81920285.716    19675792.588 8  19675790.753 8  19675788.867 7
      4580.867        3562.903  
 114721471.091    89393376.5144   21830771.119 8  21830770.28045  21830772.96745
      5785.551        4508.217  
 120394126.656    93639895.191    22482754.487 6  22482753.599 6  22482754.644 6
      7529.617        5856.372  
 122075687.408    95123931.7114   23230232.848 6  23230231.88044  23230237.97944
       -99.270         -77.349  
 123674761.002    96191495.349    23111584.623 6  23111583.470 5  23111589.470 4
      4711.051        3664.134  
 109449898.846    85285657.5594   20827623.336 8  20827623.29246  20827627.12046
      5887.734        4587.843  
 106601636.048    82912403.801    19956049.753 8  19956049.799 8  19956053.854 7
      1237.674         962.634  
 114211913.285    88996317.1774   21733804.787 7  21733804.85246  21733807.94946
      1030.335         802.863  
 103971737.512    80866928.014    19470566.277 8  19470566.103 8  19470570.040 7
      5032.931        3914.504  
 123162343.296    95792961.257    23104942.179 6  23104942.729 6  23104950.759 5
      7306.049        5682.465  
 127790759.530    99577227.8734   24317772.979 6  24317773.01243  24317777.62543
      6877.160        5358.844  
 106997503.889    83374696.8724   20360947.668 8  20360947.08946  20360950.79746
      2773.314        2161.028  
 110717339.533    86113502.498    20748381.766 7  20748381.177 7  20748385.501 7
        52.006          40.453  
 110596147.893    86178836.9594   21045747.655 8  21045747.66046  21045750.67346
      2392.490        1864.284  
 11  5 30 10 57 55.0000000  0 14R 7G28R 8G10R17G26R16G 7R 9R10G15G 8
                                R 6G 5                              
 105303159.252    81902474.256    19671514.609 8  19671512.867 8  19671510.962 7
      4579.320        3561.706  
 114692542.303    89370834.5984   21825265.769 8  21825265.07245  21825268.02945
      5786.066        4508.622  
 120356476.496    93610611.748    22475722.957 6  22475722.758 6  22475723.889 7
      7530.661        5857.174  
 122076180.185    95124315.6894   23230326.160 7  23230325.76744  23230331.60644
       -97.417         -75.896  
 123651208.329    96173176.609    23107183.941 5  23107182.321 5  23107185.017 4
      4710.004        3663.356  
 109420459.040    85262717.4514   20822021.311 8  20822021.20646  20822025.03346
      5888.304        4588.287  
 106595446.808    82907589.944    19954891.603 8  19954891.329 8  19954894.973 7
      1238.228         963.062  
 114206758.758    88992300.6604   21732824.170 7  21732824.18246  21732826.93246
      1031.596         803.843  
 103946573.814    80847356.251    19465853.592 8  19465853.654 8  19465857.663 7
      5032.595        3914.243  
 123125810.466    95764546.849    23098088.675 6  23098089.090 6  23098097.240 5
      7307.616        5683.700  
 127756368.631    99550429.7844   24311227.832 6  24311228.43843  24311233.26843
      6879.340        5360.512  
 106983636.153    83363890.8424   20358308.642 8  20358308.09946  20358311.84746
      2773.874        2161.466  
 110717079.107    86113299.927    20748332.812 7  20748332.531 7  20748336.646 7
        52.153          40.568  
 110584186.315    86169516.2454   21043471.475 8  21043471.49146  21043474.47646
      2392.115        1863.983  
 11  5 30 10 58  0.0000000  0 14R 7G28R 8G10R17G26R16G 7R 9R10G15G 8
                                R 6G 5                              
 105280266.613    81884668.872    19667237.689 8  19667236.336 8  19667234.522 7
      4577.664        3560.405  
 114663611.662    89348291.2454   21819759.976 8  21819759.33345  21819762.56745
      5786.277        4508.787  
 120318820.898    93581324.062    22468690.713 6  22468690.986 6  22468691.995 6
      7531.550        5857.875  
 122076664.452    95124693.0334   23230418.517 6  23230417.68344  23230423.62444
       -96.100         -74.878  
 123627662.564    96154863.200    23102785.690 6  23102783.237 5  23102783.951 4
      4708.235        3661.979  
 109391015.944    85239774.7814   20816418.595 8  20816418.30246  20816422.09646
      5888.999        4588.829  
 106589255.407    82902774.410    19953732.484 8  19953732.487 8  19953736.130 7
      1238.616         963.373  
 114201597.772    88988279.1074   21731842.288 7  21731842.12146  21731844.79946
      1032.827         804.807  
 103921412.190    80827786.103    19461141.396 8  19461141.731 8  19461145.730 8
      5032.133        3913.871  
 123089269.591    95736126.176    23091233.880 6  23091234.042 6  23091241.882 5
      7309.060        5684.811  
 127721965.987    99523622.5384   24304681.169 6  24304682.25643  24304686.50543
      6881.519        5362.182  
 106969766.444    83353083.2754   20355669.391 8  20355668.82946  20355672.53846
      2774.132        2161.673  
 110716818.676    86113097.356    20748284.262 7  20748283.779 7  20748287.627 7
        52.216          40.611  
 110572227.410    86160197.6134   21041195.807 8  21041195.78346  21041198.77746
      2391.534        1863.537  
 11  5 30 10 58  5.0000000  0 14R 7G28R 8G10R17G26R16G 7R 9R10G15G 8
                                R 6G 5                              
 105257382.039    81866869.758    19662962.787 8  19662961.191 8  19662959.270 7
      4576.293        3559.335  
 114634679.410    89325746.6354   21814254.218 8  21814253.56945  21814257.11745
      5786.792        4509.187  
 120281160.382    93552032.567    22461656.204 6  22461657.861 6  22461659.019 6
      7532.812        5858.850  
 122077140.557    95125064.0084   23230508.845 7  23230508.11444  23230514.34444
       -94.326         -73.502  
 123604124.044    96136555.439    23098384.183 6  23098384.171 5  23098386.405 4
      4706.843        3660.870  
 109361569.857    85216829.7824   20810815.276 7  20810814.93946  20810818.80046
      5889.643        4589.326  
 106583062.038    82897957.345    19952573.008 8  19952573.292 8  19952577.027 7
      1238.919         963.593  
 114196430.624    88984252.7554   21730859.074 8  21730858.85146  21730861.52346
      1034.081         805.784  
 103896253.015    80808217.858    19456429.929 8  19456430.090 8  19456434.256 8
      5031.653        3913.506  
 123052721.008    95707699.522    23084378.595 6  23084377.885 6  23084385.549 5
      7310.437        5685.886  
 127687551.829    99496806.3234   24298131.416 6  24298133.14543  24298137.81643
      6883.856        5364.048  
 106955895.050    83342274.3974   20353029.842 8  20353029.19846  20353032.96446
      2774.439        2161.896  
 110716558.702    86112895.145    20748235.629 7  20748235.480 7  20748238.370 7
        52.095          40.517  
 110560271.445    86150881.2674   21038920.702 8  21038920.66046  21038923.59846
      2390.998        1863.112  
 11  5 30 10 58 10.0000000  0 14R 7G28R 8G10R17G26R16G 7R 9R10G15G 8
                                R 6G 5                              
 105234505.752    81849077.092    19658689.388 8  19658687.741 8  19658685.916 7
      4574.441        3557.893  
 114605745.534    89303200.7594   21808748.269 7  21808747.68845  21808751.18145
      5786.998        4509.340  
 120243494.831    93522737.146    22454624.439 6  22454624.216 6  22454625.451 6
      7533.625        5859.491  
 122077608.331    95125428.4934   23230598.089 6  23230597.11644  23230603.25944
       -92.600         -72.161  
 123580592.786    96118253.349    23093986.384 5  23093985.865 5  23093989.017 4
      4705.762        3660.026  
 109332120.600    85193882.3104   20805211.185 8  20805210.87346  20805214.79646
      5890.334        4589.866  
 106576866.662    82893138.718    19951413.575 8  19951413.727 8  19951417.560 7
      1239.330         963.917  
 114191257.254    88980221.5604   21729874.372 8  21729874.24346  21729877.15646
      1035.335         806.755  
 103871096.121    80788651.387    19451718.695 8  19451718.900 8  19451723.223 7
      5031.294        3913.226  
 123016164.707    95679266.840    23077520.928 6  23077519.980 6  23077527.699 5
      7311.856        5686.996  
 127653126.154    99469981.1144   24291581.332 6  24291582.36143  24291586.85143
      6886.473        5366.089  
 106942021.902    83331464.1484   20350389.900 8  20350389.27046  20350393.03546
      2774.832        2162.203  
 110716298.922    86112693.090    20748186.906 7  20748186.479 7  20748189.327 7
        51.880          40.344  
 110548318.360    86141567.1744   21036646.312 8  21036646.05946  21036649.06946
      2390.396        1862.645  
 11  5 30 10 58 15.0000000  0 14R 7G28R 8G10R17G26R16G 7R 9R10G15G 8
                                R 6G 5                              
 105211638.131    81831291.164    19654417.282 8  19654415.704 8  19654413.742 7
      4572.812        3556.621  
 114576810.327    89280653.8504   21803242.030 7  21803241.70645  21803245.14545
      5787.155        4509.464  
 120205824.241    93493437.808    22447590.192 6  22447589.495 6  22447590.762 7
      7534.299        5859.989  
 122078068.175    95125786.8064   23230685.370 6  23230684.84844  23230690.70344
       -91.200         -71.069  
 123557069.020    96099957.098    23089589.298 5  23089589.293 5  23089592.452 4
      4703.949        3658.593  
 109302668.606    85170932.7024   20799606.686 8  20799606.35446  20799610.21846
      5890.698        4590.148  
 106570669.691    82888318.851    19950253.443 8  19950253.892 8  19950257.814 7
      1239.471         964.034  
 114186077.900    88976185.6944   21728888.660 8  21728888.56446  21728891.66446
      1036.491         807.649  
 103845941.900    80769086.996    19447008.423 8  19447008.587 8  19447012.858 8
      5030.559        3912.656  
 122979601.008    95650828.422    23070661.540 6  23070660.618 6  23070668.667 5
      7313.246        5688.057  
 127618689.310    99443147.2164   24285029.285 6  24285029.41443  24285033.53943
      6888.364        5367.521  
 106928147.306    83320652.7734   20347749.706 8  20347749.09946  20347752.79346
      2775.046        2162.372  
 110716039.797    86112491.542    20748138.000 7  20748137.756 7  20748140.967 7
        51.815          40.307  
 110536368.419    86132255.5254   21034372.094 8  21034372.00646  21034375.01846
      2389.668        1862.084  
 11  5 30 10 58 20.0000000  0 14R 7G28R 8G10R17G26R16G 7R 9R10G15G 8
                                R 6G 5                              
 105188778.299    81813511.290    19650146.792 8  19650145.350 8  19650143.403 7
      4571.178        3555.373  
 114547873.777    89258105.8924   21797735.607 7  21797735.27645  21797738.74245
      5787.465        4509.706  
 120168149.076    93464134.913    22440554.986 6  22440553.830 6  22440555.057 6
      7535.509        5860.949  
 122078519.926    95126138.8084   23230771.493 6  23230770.77444  23230776.82844
       -89.487         -69.724  
 123533552.502    96081666.466    23085196.986 5  23085195.324 5  23085198.110 4
      4702.520        3657.513  
 109273213.740    85147980.8604   20794001.999 8  20794001.22346  20794005.16846
      5891.367        4590.669  
 106564470.842    82883497.520    19949092.729 8  19949092.916 8  19949097.192 7
      1239.897         964.367  
 114180892.541    88972145.1544   21727902.126 8  21727901.91746  21727905.01146
      1037.691         808.597  
 103820790.179    80749524.553    19442298.464 8  19442298.368 8  19442302.657 8
      5030.112        3912.306  
 122943029.967    95622384.294    23063801.188 6  23063800.134 6  23063808.245 5
      7314.970        5689.409  
 127584241.085    99416304.4614   24278474.077 6  24278473.71643  24278478.10043
      6890.789        5369.442  
 106914271.146    83309840.1794   20345108.991 8  20345108.49746  20345112.25446
      2775.441        2162.670  
 110715781.068    86112290.298    20748089.782 7  20748089.133 7  20748092.670 7
        51.660          40.179  
 110524421.540    86122946.2694   21032098.508 8  21032098.62346  21032101.68646
      2389.015        1861.567  
 11  5 30 10 58 25.0000000  0 14R 7G28R 8G10R17G26R16G 7R 9R10G15G 8
                                R 6G 5                              
 105165927.372    81795738.347    19645877.919 8  19645876.611 8  19645874.550 7
      4569.381        3553.953  
 114518936.115    89235557.0704   21792229.236 7  21792228.69645  21792232.27245
      5787.721        4509.902  
 120130469.255    93434828.392    22433518.306 7  22433517.404 6  22433518.576 6
      7536.686        5861.866  
 122078963.897    95126484.7404   23230856.192 7  23230855.31844  23230861.53744
       -88.156         -68.700  
 123510043.534    96063381.725    23080802.680 5  23080802.116 5  23080806.286 4
      4701.098        3656.375  
 109243756.320    85125027.0284   20788396.320 8  20788395.65346  20788399.61346
      5891.864        4591.058  
 106558270.463    82878674.993    19947931.427 8  19947931.764 8  19947936.384 7
      1240.186         964.586  
 114175701.421    88968100.1194   21726914.115 8  21726913.98046  21726917.23546
      1038.878         809.510  
 103795641.367    80729964.367    19437589.042 8  19437589.075 8  19437593.140 8
      5029.498        3911.820  
 122906451.776    95593934.603    23056938.923 6  23056938.509 6  23056946.445 5
      7316.417        5690.545  
 127549781.884    99389453.1414   24271917.211 6  24271916.48843  24271920.87643
      6893.127        5371.249  
 106900393.680    83299026.5664   20342468.382 8  20342467.72546  20342471.47646
      2775.694        2162.871  
 110715523.117    86112089.659    20748040.781 7  20748040.860 7  20748044.499 7
        51.576          40.114  
 110512477.994    86113639.6064   21029825.502 8  21029825.76046  21029828.91746
      2388.534        1861.178  
 11  5 30 10 58 30.0000000  0 14R 7G28R 8G10R17G26R16G 7R 9R10G15G 8
                                R 6G 5                              
 105143084.980    81777972.040    19641610.711 8  19641609.565 8  19641607.565 7
      4567.678        3552.636  
 114489997.237    89213007.2944   21786722.423 7  21786721.84945  21786725.24545
      5787.773        4509.969  
 120092784.924    93405518.372    22426481.769 7  22426480.382 6  22426481.253 6
      7537.299        5862.353  
 122079399.924    95126824.4784   23230939.579 7  23230938.48744  23230944.33544
       -86.599         -67.470  
 123486542.145    96045102.889    23076412.876 5  23076410.274 5  23076414.681 4
      4699.636        3655.234  
 109214296.233    85102071.1224   20782789.840 8  20782789.63946  20782793.53846
      5892.294        4591.408  
 106552068.412    82873851.169    19946770.590 8  19946770.677 8  19946775.262 7
      1240.436         964.797  
 114170504.436    88964050.5154   21725925.104 8  21725924.98946  21725928.35146
      1039.884         810.305  
 103770495.254    80710406.283    19432880.074 8  19432880.076 8  19432883.845 7
      5028.920        3911.394  
 122869866.245    95565479.197    23050074.678 6  23050074.785 6  23050083.057 5
      7317.786        5691.608  
 127515311.612    99362593.1944   24265357.168 6  24265356.92843  24265361.65343
      6895.118        5372.828  
 106886514.770    83288211.8274   20339827.627 8  20339826.79946  20339830.36946
      2775.945        2163.083  
 110715265.864    86111889.559    20747992.300 7  20747992.305 7  20747996.411 7
        51.539          40.102  
 110500537.686    86104335.4604   21027552.934 8  21027553.64746  21027556.74046
      2387.657        1860.521  
 11  5 30 10 58 35.0000000  0 14R 7G28R 8G10R17G26R16G 7R 9R10G15G 8
                                R 6G 5                              
 105120251.367    81760212.565    19637345.959 8  19637344.187 8  19637342.125 7
      4565.752        3551.146  
 114461057.396    89190456.7724   21781215.516 7  21781214.73045  21781218.27745
      5787.796        4509.977  
 120055096.187    93376204.924    22419442.487 6  22419442.082 6  22419443.184 6
      7537.952        5862.836  
 122079828.251    95127158.2274   23231021.329 7  23231020.15044  23231025.92644
       -84.873         -66.122  
 123463048.741    96026830.253    23072020.284 5  23072020.163 5  23072024.323 4
      4697.962        3653.970  
 109184833.757    85079113.3514   20777183.142 8  20777183.09646  20777186.95946
      5892.577        4591.616  
 106545864.984    82869026.280    19945609.778 8  19945609.672 8  19945613.967 7
      1240.689         964.989  
 114165301.825    88959996.5244   21724934.871 7  21724934.84546  21724938.26646
      1040.903         811.099  
 103745352.100    80690850.495    19428171.443 8  19428171.547 8  19428175.352 8
      5028.167        3910.800  
 122833273.598    95537018.260    23043209.007 6  23043210.072 6  23043217.750 5
      7319.065        5692.601  
 127480830.404    99335724.7254   24258795.054 6  24258795.40343  24258799.88743
      6897.328        5374.515  
 106872634.724    83277396.2084   20337186.224 8  20337185.45146  20337189.09146
      2776.094        2163.189  
 110715009.374    86111690.056    20747944.239 7  20747944.061 7  20747947.921 7
        51.078          39.746  
 110488600.868    86095034.0404   21025281.467 7  21025282.11046  21025285.10846
      2386.927        1859.949  
 11  5 30 10 58 40.0000000  0 14R 7G28R 8G10R17G26R16G 7R 9R10G15G 8
                                R 6G 5                              
 105097427.015    81742460.296    19633082.912 8  19633080.519 8  19633078.448 7
      4563.831        3549.647  
 114432117.050    89167905.8594   21775708.218 7  21775707.31245  21775711.26045
      5787.964        4510.103  
 120017403.497    93346888.398    22412403.676 7  22412403.285 6  22412404.344 6
      7538.692        5863.434  
 122080249.369    95127486.3634   23231101.424 7  23231100.51144  23231106.32344
       -83.440         -65.017  
 123439563.668    96008564.104    23067633.942 6  23067633.035 5  23067634.558 4
      4696.053        3652.486  
 109155369.306    85056154.0424   20771575.835 8  20771576.06646  20771580.02246
      5892.954        4591.910  
 106539660.614    82864200.656    19944448.580 8  19944448.523 8  19944452.438 7
      1241.007         965.223  
 114160094.047    88955938.5054   21723944.135 7  21723943.89046  21723947.21046
      1041.977         811.937  
 103720212.329    80671297.341    19423463.541 8  19423463.680 8  19423467.409 8
      5027.526        3910.302  
 122796674.389    95508552.225    23036344.969 6  23036344.342 6  23036351.633 5
      7320.524        5693.733  
 127446338.840    99308848.1914   24252231.362 6  24252231.86643  24252236.36743
      6899.159        5375.961  
 106858753.934    83266580.0084   20334544.637 8  20334544.04846  20334547.70946
      2776.195        2163.275  
 110714754.205    86111491.582    20747896.932 7  20747896.475 7  20747900.142 7
        50.744          39.473  
 110476667.960    86085735.6684   21023010.698 7  21023011.46346  21023014.43446
      2386.200        1859.371  
 11  5 30 10 58 45.0000000  0 14R 7G28R 8G10R17G26R16G 7R 9R10G15G 8
                                R 6G 5                              
 105074611.752    81724715.096    19628819.920 8  19628818.341 8  19628816.400 7
      4562.204        3548.385  
 114403176.019    89145354.4084   21770201.031 8  21770200.09545  21770203.88345
      5788.275        4510.342  
 119979706.787    93317568.742    22405363.630 7  22405363.772 6  22405364.588 6
      7539.837        5864.309  
 122080663.039    95127808.6914   23231179.893 7  23231179.02544  23231184.90644
       -81.982         -63.887  
 123416086.759    95990304.264    23063246.282 6  23063246.220 5  23063247.370 4
      4694.521        3651.328  
 109125902.719    85033193.0624   20765968.330 8  20765968.75046  20765972.78546
      5893.571        4592.392  
 106533455.078    82859374.127    19943287.321 8  19943287.153 8  19943290.713 7
      1241.366         965.503  
 114154880.835    88951876.2554   21722952.156 8  21722951.82846  21722955.14546
      1043.271         812.947  
 103695075.868    80651746.760    19418756.570 8  19418756.355 8  19418760.112 7
      5027.015        3909.900  
 122760068.380    95480080.888    23029477.511 6  23029476.927 6  23029484.322 5
      7321.898        5694.815  
 127411836.626    99281963.3604   24245665.233 6  24245666.42843  24245670.70143
      6901.823        5378.021  
 106844872.215    83255763.0844   20331902.727 8  20331902.28946  20331906.17146
      2776.535        2163.529  
 110714500.030    86111293.885    20747850.006 7  20747849.457 7  20747852.843 7
        50.804          39.513  
 110464738.780    86076440.1944   21020740.586 8  21020741.44846  21020744.40446
      2385.642        1858.936  
 11  5 30 10 58 50.0000000  0 14R 7G28R 8G10R17G26R16G 7R 9R10G15G 8
                                R 6G 5                              
 105051806.001    81706977.288    19624558.980 8  19624557.924 8  19624556.084 7
      4560.280        3546.875  
 114374234.763    89122802.7874   21764693.438 7  21764692.66645  21764696.59745
      5788.493        4510.517  
 119942006.359    93288246.191    22398322.328 6  22398323.284 6  22398324.525 7
      7540.357        5864.710  
 122081069.702    95128125.5584   23231257.707 7  23231256.79644  23231262.23844
       -80.692         -62.868  
 123392618.460    95972051.149    23058859.444 6  23058859.263 5  23058861.852 4
      4693.084        3650.205  
 109096434.436    85010230.7564   20760361.020 8  20760361.19046  20760365.17746
      5893.758        4592.541  
 106527248.800    82854547.023    19942125.190 8  19942125.406 8  19942128.892 7
      1241.350         965.480  
 114149662.670    88947810.1444   21721959.334 7  21721958.87246  21721962.07546
      1044.239         813.686  
 103669943.081    80632199.040    19414049.748 8  19414049.779 8  19414053.567 7
      5026.337        3909.371  
 122723456.010    95451604.612    23022609.411 6  23022608.447 6  23022616.121 5
      7323.134        5695.758  
 127377324.291    99255070.6324   24239097.744 6  24239098.79143  24239103.16843
      6903.330        5379.228  
 106830990.042    83244945.8014   20329260.977 8  20329260.56946  20329264.54946
      2776.486        2163.489  
 110714247.526    86111097.489    20747802.559 7  20747801.982 7  20747805.603 7
        50.420          39.208  
 110452813.758    86067147.9634   21018471.400 8  21018472.06446  21018475.13546
      2384.672        1858.186  
 11  5 30 10 58 55.0000000  0 14R 7G28R 8G10R17G26R16G 7R 9R10G15G 8
                                R 6G 5                              
 105029009.543    81689246.706    19620300.421 8  19620299.247 8  19620297.580 7
      4558.455        3545.461  
 114345293.145    89100250.8854   21759186.159 8  21759185.54545  21759189.03345
      5788.514        4510.517  
 119904302.322    93258920.848    22391281.750 6  22391282.176 6  22391283.463 6
      7541.321        5865.458  
 122081469.142    95128436.7994   23231333.868 7  23231332.79044  23231338.00344
       -79.084         -61.623  
 123369158.711    95953804.689    23054474.713 5  23054474.006 5  23054477.759 4
      4691.312        3648.793  
 109066964.327    84987267.0384   20754753.474 8  20754753.13246  20754757.19446
      5894.267        4592.938  
 106521041.547    82849719.154    19940962.885 8  19940963.352 8  19940966.945 7
      1241.603         965.693  
 114144439.379    88943740.0444   21720965.473 7  21720965.12046  21720968.09946
      1045.275         814.497  
 103644813.810    80612654.056    19409343.827 8  19409343.791 8  19409347.796 7
      5025.555        3908.754  
 122686837.200    95423123.329    23015739.039 6  23015738.705 6  23015747.001 5
      7324.509        5696.842  
 127342801.621    99228169.8534   24232528.380 6  24232529.23243  24232533.87643
      6905.716        5381.083  
 106817107.181    83234127.9834   20326619.084 8  20326618.81546  20326622.70446
      2776.733        2163.691  
 110713996.257    86110902.051    20747754.857 7  20747754.928 7  20747758.746 7
        50.178          39.020  
 110440892.760    86057858.8714   21016203.397 8  21016203.54946  21016206.64646
      2383.970        1857.639  
 11  5 30 10 59  0.0000000  0 14R 7G28R 8G10R17G26R16G 7R 9R10G15G 8
                                R 6G 5                              
 105006222.719    81671523.619    19616044.368 8  19616042.601 8  19616040.768 7
      4556.371        3543.852  
 114316351.468    89077698.9314   21753679.087 7  21753678.58145  21753681.45945
      5788.330        4510.380  
 119866594.777    93229592.766    22384240.231 6  22384240.680 6  22384241.770 6
      7541.853        5865.881  
 122081861.687    95128742.6644   23231409.134 7  23231407.46044  23231412.88044
       -77.884         -60.685  
 123345707.748    95935565.055    23050093.938 6  23050092.424 5  23050094.717 4
      4689.168        3647.152  
 109037492.683    84964302.1234   20749145.443 8  20749144.95146  20749148.82646
      5894.496        4593.116  
 106514833.667    82844890.801    19939800.883 8  19939801.176 8  19939804.763 7
      1241.545         965.648  
 114139211.248    88939666.1694   21719970.696 8  21719970.21946  21719973.21146
      1046.037         815.087  
 103619688.368    80593112.046    19404638.707 8  19404638.635 8  19404642.691 7
      5024.692        3908.098  
 122650212.280    95394637.293    23008868.365 6  23008867.995 6  23008876.610 5
      7325.498        5697.589  
 127308268.956    99201261.2924   24225956.997 6  24225957.80043  24225962.30543
      6907.351        5382.344  
 106803224.024    83223309.9314   20323977.265 8  20323976.93846  20323980.85246
      2776.509        2163.521  
 110713746.699    86110707.941    20747708.747 7  20747708.078 7  20747711.802 7
        49.697          38.660  
 110428976.095    86048573.1564   21013935.803 8  21013935.95346  21013939.03646
      2382.872        1856.783  
 11  5 30 10 59  5.0000000  0 14R 7G28R 8G10R17G26R16G 7R 9R10G15G 8
                                R 6G 5                              
 104983446.065    81653808.445    19611789.632 8  19611787.903 8  19611785.822 7
      4554.390        3542.303  
 114287410.034    89055147.1554   21748172.112 8  21748171.29145  21748174.01045
      5788.400        4510.445  
 119828884.264    93200262.382    22377197.750 6  22377198.401 6  22377199.569 6
      7542.416        5866.317  
 122082247.618    95129043.3844   23231481.852 6  23231480.70244  23231486.56444
       -76.790         -59.826  
 123322265.745    95917332.367    23045714.527 6  23045712.187 5  23045713.304 4
      4687.822        3646.112  
 109008019.801    84941336.2474   20743536.745 8  20743536.45746  20743540.33246
      5894.679        4593.257  
 106508625.443    82840062.180    19938638.652 8  19938638.729 8  19938642.684 7
      1241.769         965.827  
 114133978.584    88935588.7694   21718974.811 8  21718974.59946  21718977.46146
      1046.996         815.845  
 103594567.044    80573573.242    19399933.989 8  19399934.088 8  19399938.329 7
      5023.938        3907.517  
 122613581.542    95366146.730    23001996.667 6  23001995.911 6  23002005.204 5
      7326.738        5698.590  
 127273726.607    99174345.1854   24219383.657 6  24219384.60543  24219389.57343
      6909.368        5383.932  
 106789340.819    83212491.8504   20321336.067 8  20321335.18746  20321338.92646
      2776.704        2163.675  
 110713499.091    86110515.343    20747661.869 7  20747661.614 7  20747665.527 7
        49.314          38.362  
 110417063.948    86039290.9554   21011668.890 8  21011669.20346  21011672.28546
      2381.907        1856.041  
 11  5 30 10 59 10.0000000  0 14R 7G28R 8G10R17G26R16G 7R 9R10G15G 8
                                R 6G 5                              
 104960679.492    81636101.111    19607536.516 8  19607534.871 8  19607532.811 7
      4552.339        3540.709  
 114258468.894    89032595.6214   21742664.552 8  21742663.92745  21742666.38945
      5788.163        4510.252  
 119791170.729    93170929.636    22370155.445 6  22370155.600 6  22370156.912 6
      7543.236        5866.965  
 122082626.958    95129338.9574   23231553.872 7  23231552.55144  23231558.90144
       -75.272         -58.653  
 123298832.821    95899106.780    23041334.044 5  23041332.138 5  23041334.169 4
      4685.919        3644.627  
 108978545.744    84918369.4534   20737927.854 8  20737927.87846  20737931.56046
      5895.036        4593.533  
 106502416.917    82835233.326    19937476.025 8  19937476.315 8  19937480.490 7
      1241.884         965.907  
 114128741.414    88931507.8554   21717978.126 7  21717977.90046  21717980.85746
      1047.953         816.585  
 103569449.947    80554037.725    19395230.685 8  19395230.441 8  19395234.562 7
      5023.072        3906.831  
 122576944.992    95337651.646    22995124.549 6  22995123.360 6  22995132.557 5
      7327.888        5699.473  
 127239174.649    99147421.5834   24212809.201 6  24212809.70743  24212814.22143
      6911.363        5385.491  
 106775457.633    83201673.7844   20318693.981 8  20318693.30646  20318696.96346
      2776.740        2163.694  
 110713253.317    86110324.177    20747616.750 7  20747615.926 7  20747619.647 7
        49.008          38.111  
 110405156.415    86030012.3544   21009403.219 8  21009403.28346  21009406.27946
      2381.070        1855.372  
 11  5 30 10 59 15.0000000  0 14R 7G28R 8G10R17G26R16G 7R 9R10G15G 8
                                R 6G 5                              
 104937923.023    81618401.635    19603285.139 8  19603283.733 8  19603281.705 7
      4550.311        3539.136  
 114229528.161    89010044.3994   21737156.663 7  21737156.43545  21737159.16645
      5788.068        4510.184  
 119753454.177    93141594.552    22363112.471 6  22363112.346 6  22363113.647 6
      7543.607        5867.258  
 122082999.804    95129629.4534   23231624.907 6  23231623.64644  23231629.96644
       -73.931         -57.587  
 123275409.009    95880888.252    23036956.611 5  23036955.884 5  23036957.922 4
      4683.462        3642.703  
 108949070.622    84895401.8234   20732318.823 8  20732318.93146  20732322.65646
      5895.103        4593.592  
 106496208.189    82830404.307    19936313.761 8  19936313.962 8  19936318.283 7
      1241.630         965.732  
 114123499.804    88927423.4794   21716980.650 7  21716980.38346  21716983.40346
      1048.668         817.145  
 103544337.074    80534505.492    19390527.425 8  19390527.578 8  19390531.681 7
      5022.257        3906.202  
 122540302.829    95309152.193    22988249.665 6  22988249.211 6  22988258.590 5
      7328.943        5700.304  
 127204613.131    99120490.5384   24206232.725 6  24206232.67143  24206238.01443
      6913.224        5386.938  
 106761574.525    83190855.7764   20316051.914 8  20316051.34046  20316055.07146
      2776.598        2163.588  
 110713009.522    86110134.552    20747570.362 7  20747570.378 7  20747573.667 7
        48.493          37.723  
 110393253.563    86020737.3994   21007138.161 8  21007138.30246  21007141.28146
      2379.960        1854.510  
 11  5 30 10 59 20.0000000  0 14R 7G28R 8G10R17G26R16G 7R 9R10G15G 8
                                R 6G 5                              
 106519993.484    82848900.886    19898829.087 8  19898827.768 8  19898825.761 7
      4548.267        3537.539  
 115776013.662    90215098.0454   22031442.909 8  22031442.62045  22031445.68045
      5787.988        4510.104  
 121321117.446    94360888.217    22655862.164 7  22655862.510 6  22655863.551 6
      7543.798        5867.403  
 123658786.070    96357514.8424   23531487.042 6  23531485.70544  23531492.17144
       -72.649         -56.615  
 124856248.920    97110430.410    23332374.504 6  23332373.854 5  23332377.094 4
      4681.886        3641.479  
 110495020.418    86100038.0284   21026503.486 8  21026503.40546  21026506.99146
      5895.279        4593.721  
 108091438.049    84071138.641    20234944.190 8  20234944.181 8  20234948.658 7
      1241.625         965.709  
 115693674.860    90150936.4984   22015774.888 7  22015774.66046  22015777.81946
      1049.571         817.846  
 105120108.625    81760105.588    19685619.304 8  19685618.903 8  19685623.157 7
      5021.170        3905.354  
 124101724.758    96523591.499    23281168.644 6  23281168.132 6  23281177.210 5
      7329.956        5701.086  
 128745469.092   100321157.5314   24499448.231 6  24499447.88143  24499453.08143
      6914.667        5388.071  
 108323114.357    84407640.0564   20613203.233 8  20613202.48346  20613206.11946
      2776.383        2163.424  
 112312517.884    87354196.607    21047317.903 7  21047317.726 7  21047320.616 7
        48.023          37.358  
 111956777.843    87239068.0024   21304666.828 8  21304667.07946  21304669.99046
      2379.104        1853.841  
 11  5 30 10 59 25.0000000  0 14R 7G28R 8G10R17G26R16G 7R 9R10G15G 8
                                R 6G 5                              
 106497257.818    82831217.585    19894581.451 8  19894580.586 8  19894578.428 7
      4546.052        3535.823  
 115747074.251    90192547.8544   22025936.290 8  22025935.69245  22025938.98245
      5787.916        4510.068  
 121283395.540    94331548.957    22648818.386 7  22648818.186 6  22648819.256 6
      7544.487        5867.947  
 123659146.357    96357795.5664   23531556.036 6  23531554.45044  23531560.50644
       -71.206         -55.490  
 124832843.939    97092226.551    23328000.146 6  23327999.842 5  23328003.120 4
      4680.126        3640.095  
 110465543.710    86077069.1694   21020894.079 8  21020894.22146  21020897.81846
      5895.388        4593.812  
 108085229.378    84066309.669    20233781.785 8  20233781.718 8  20233786.393 7
      1241.709         965.784  
 115688424.890    90146845.6114   22014775.679 7  22014775.52046  22014778.78446
      1050.389         818.493  
 105095004.915    81740580.480    19680917.897 8  19680917.914 8  19680922.230 8
      5020.267        3904.654  
 124065071.633    96495083.521    23274293.316 6  23274292.399 6  23274300.967 5
      7331.090        5701.958  
 128710889.031   100294212.0374   24492868.381 6  24492867.55743  24492872.24343
      6916.604        5389.562  
 108309231.869    84396822.5324   20610561.553 8  20610560.77846  20610564.46446
      2776.400        2163.432  
 112312278.703    87354010.568    21047272.587 7  21047272.458 7  21047275.831 7
        47.669          37.086  
 111944884.877    87229800.7494   21302403.521 8  21302403.94746  21302406.89446
      2378.110        1853.075  
 11  5 30 10 59 30.0000000  0 14R 7G28R 8G10R17G26R16G 7R 9R10G15G 8
                                R 6G 5                              
 106474532.647    82813542.450    19890336.809 8  19890335.341 8  19890333.157 6
      4544.079        3534.289  
 115718135.508    90169998.1914   22020429.381 7  22020428.89645  22020432.12745
      5787.809        4509.979  
 121245671.184    94302207.817    22641773.611 6  22641773.394 6  22641774.357 7
      7545.059        5868.367  
 123659500.372    96358071.4134   23531623.234 6  23531621.86244  23531628.00844
       -70.232         -54.731  
 124809448.561    97074030.158    23323629.157 6  23323627.725 5  23323629.944 4
      4678.004        3638.475  
 110436066.290    86054099.7474   21015284.524 7  21015284.89246  21015288.46246
      5895.708        4594.065  
 108079020.776    84061480.752    20232619.131 8  20232619.386 8  20232624.167 7
      1241.665         965.742  
 115683170.768    90142751.4824   22013775.986 7  22013775.57946  22013778.92246
      1051.261         819.175  
 105069905.634    81721058.817    19676217.448 8  19676217.682 8  19676221.900 7
      5019.421        3903.994  
