     2.10           OBSERVATION DATA    M (MIXED)           RINEX VERSION / TYPE
Pinnacle 1.00                           30-MAY-11 20:31     PGM / RUN BY / DATE
build April 19, 2002                                        COMMENT
-Unknown-           -Unknown-                               OBSERVER / AGENCY
         Begin Pinnacle project                             COMMENT
VG_GPS                                                      COMMENT
                                                            COMMENT
                                                            COMMENT
May 30, 2011 8:29:02 pm                                     COMMENT
                                                            COMMENT
                                                            COMMENT
C:\data\VG_GPS\projekt\Pinnacle.dbd                         COMMENT
         End Pinnacle project                               COMMENT
                                                            COMMENT
1003                                                        MARKER NAME
1003                                                        MARKER NUMBER
8QG4AWP4FEO         TPS HIPER           3.3 Dec,22,2008 p6  REC # / TYPE / VERS
-Unknown-           TPSPG_A1                                ANT # / TYPE
  3915391.0995  1194625.1628  4875755.3456                  APPROX POSITION XYZ
        1.3900        0.0000        0.0000                  ANTENNA: DELTA H/E/N
     1     1                                                WAVELENGTH FACT L1/2
     7    L1    L2    C1    P1    P2    D1    D2            # / TYPES OF OBSERV
     5.000                                                  INTERVAL
  2011     5    30    12    27   50.0000000     GPS         TIME OF FIRST OBS
  2011     5    30    12    58   25.0000000     GPS         TIME OF LAST OBS
    15                                                      LEAP SECONDS
    18                                                      # OF SATELLITES
   R 1   368   368   368   368   368   368   368            PRN / # OF OBS
   R 7   368   368   368   368   368   368   368            PRN / # OF OBS
   R 8   368   368   368   368   368   368   368            PRN / # OF OBS
   R 9   368   368   368   368   368   368   368            PRN / # OF OBS
   R10   368   368   368   368   368   368   368            PRN / # OF OBS
   R11   149   149   149   149   149   149   149            PRN / # OF OBS
   R16    36    31    36    34    31    36    31            PRN / # OF OBS
   R18   368   368   368   368   368   368   368            PRN / # OF OBS
   R19   368   368   368   368   368   368   368            PRN / # OF OBS
   G 5   310   310   310   310   310   310   310            PRN / # OF OBS
   G 8   368   368   368   368   368   368   368            PRN / # OF OBS
   G 9   368   368   368   368   368   368   368            PRN / # OF OBS
   G15   368   368   368   368   368   368   368            PRN / # OF OBS
   G17   368   368   368   368   368   368   368            PRN / # OF OBS
   G18   368   368   368   368   368   368   368            PRN / # OF OBS
   G26   368   368   368   368   368   368   368            PRN / # OF OBS
   G27   368   368   368   368   368   368   368            PRN / # OF OBS
   G28   368   368   368   368   368   368   368            PRN / # OF OBS
SE TPS e9dd5a07                                             COMMENT
                                                            END OF HEADER
 11  5 30 12 27 50.0000000  0 16G26G28R 9R 8R10G15R 7G 8G27R18G 5R19
                                R 1G17G18G 9                        
 105005941.665    81822831.3354   19981966.830 8  19981966.68847  19981969.89247
      2905.438        2263.971  
 111228731.538    86671758.7804   21166123.806 8  21166123.16146  21166126.70946
      2814.882        2193.409  
 105666734.763    82185257.858    19787984.307 8  19787984.635 8  19787989.184 8
      2021.878        1572.563  
 108503464.835    84391604.896    20262256.432 8  20262255.939 8  20262256.310 7
      3804.642        2959.143  
 108373978.799    84290896.708    20330683.650 7  20330683.233 7  20330689.375 6
      5478.130        4260.766  
 113048488.168    88089749.0124   21512411.482 8  21512411.66446  21512414.97946
      5622.664        4381.289  
 113581541.337    88341223.508    21217986.666 7  21217985.524 7  21217984.538 6
       146.592         114.016  
 117491460.029    91551805.9384   22357881.189 7  22357880.33344  22357884.64845
       919.160         716.237  
 120235479.552    93690003.5704   22880050.772 7  22880050.27245  22880055.27445
      5842.155        4552.312  
 118291944.697    92004862.070    22160065.331 6  22160065.744 6  22160070.365 6
      3499.369        2721.729  
 125152833.399    97521709.5784   23815792.469 7  23815793.03444  23815798.09644
        30.348          23.649  
 121071739.064    94166934.844    22633087.202 6  22633085.777 6  22633088.231 6
      6905.794        5371.146  
 123638463.416    96163275.074    23129131.755 6  23129131.606 6  23129137.120 5
      7252.325        5640.686  
 127990223.762    99732662.6914   24355730.420 6  24355729.98043  24355734.95243
      6723.268        5238.926  
 130669537.975   101820444.1674   24865587.293 6  24865586.39442  24865591.96542
      6078.121        4736.208  
 128453353.135   100093540.4584   24443859.958 6  24443859.67443  24443864.74343
      7118.708        5547.044  
 11  5 30 12 27 55.0000000  0 16G26G28R 9R 8R10G15R 7G 8G27R18G 5R19
                                R 1G17G18G 9                        
 104991412.463    81811509.8764   19979201.795 8  19979201.61247  19979205.11946
      2906.167        2264.550  
 111214653.587    86660788.9484   21163445.210 8  21163444.41746  21163447.73646
      2816.455        2194.648  
 105656620.446    82177391.164    19786090.609 8  19786090.695 8  19786094.962 7
      2023.807        1574.084  
 108484443.082    84376810.198    20258704.929 8  20258703.882 8  20258704.073 7
      3804.139        2958.769  
 108346582.510    84269588.488    20325544.795 8  20325543.923 7  20325550.516 6
      5480.328        4262.477  
 113020369.968    88067838.7244   21507060.866 8  21507060.99546  21507064.34346
      5624.517        4382.741  
 113580805.299    88340651.028    21217849.704 7  21217848.136 7  21217847.123 6
       147.856         115.001  
 117486856.369    91548218.6714   22357005.261 7  22357004.44244  22357008.74744
       922.255         718.632  
 120206261.007    93667235.8684   22874490.774 7  22874490.19745  22874494.91445
      5845.256        4554.749  
 118274448.739    91991254.113    22156787.863 6  22156787.486 6  22156792.824 6
      3499.101        2721.518  
 125152673.935    97521585.3034   23815762.329 7  23815762.29544  23815767.95444
        33.426          26.051  
 121037204.999    94140075.050    22626630.567 6  22626630.024 6  22626631.789 5
      6907.678        5372.610  
 123602196.399    96135067.419    23122347.271 6  23122347.024 6  23122352.260 5
      7254.191        5642.156  
 127956598.042    99706460.8494   24349330.642 6  24349330.65243  24349336.54743
      6726.713        5241.590  
 130639141.709   101796758.7634   24859804.309 6  24859803.26542  24859807.34942
      6080.222        4737.844  
 128417749.864   100065797.6704   24437085.129 6  24437084.09843  24437089.51843
      7122.450        5549.948  
 11  5 30 12 28  0.0000000  0 16G26G28R 9R 8R10G15R 7G 8G27R18G 5R19
                                R 1G17G18G 9                        
 104976878.626    81800184.8064   19976435.672 8  19976435.75046  19976439.35746
      2907.201        2265.354  
 111200568.364    86649813.4414   21160764.989 8  21160764.21346  21160767.36946
      2817.798        2195.689  
 105646495.750    82169516.403    19784194.836 8  19784194.835 8  19784198.968 7
      2025.990        1575.775  
 108465423.747    84362017.388    20255152.065 8  20255152.066 8  20255152.419 7
      3803.601        2958.346  
 108319175.641    84248272.042    20320402.600 7  20320402.167 7  20320409.030 6
      5482.403        4264.096  
 112992241.689    88045920.5814   21501707.590 8  21501708.36646  21501711.65446
      5626.582        4384.339  
 113580061.985    88340072.893    21217711.825 7  21217709.614 7  21217708.432 6
       149.418         116.220  
 117482237.794    91544619.7764   22356126.050 7  22356125.62844  22356129.83444
       925.153         720.898  
 120177026.656    93644455.8644   22868927.734 7  22868927.03145  22868931.73545
      5848.564        4557.326  
 118256954.498    91977647.479    22153510.611 6  22153510.339 6  22153515.545 6
      3498.661        2721.177  
 125152498.029    97521448.2114   23815728.855 7  23815728.72544  23815734.56644
        36.926          28.792  
 121002662.469    94113208.654    22620173.707 6  22620171.661 5  22620174.833 5
      6909.328        5373.913  
 123565920.000    96106852.453    23115561.102 6  23115561.080 6  23115565.904 5
      7256.201        5643.706  
 127922954.889    99680245.4334   24342928.431 6  24342928.56343  24342934.89843
      6730.211        5244.316  
 130608734.658   101773064.9644   24854017.218 6  24854016.79442  24854020.87042
      6082.563        4739.604  
 128382127.852   100038040.2714   24430306.111 6  24430305.27843  24430310.83643
      7126.182        5552.863  
 11  5 30 12 28  5.0000000  0 16G26G28R 9R 8R10G15R 7G 8G27R18G 5R19
                                R 1G17G18G 9                        
 104962340.563    81788856.4394   19973669.479 8  19973669.27846  19973672.76846
      2908.220        2266.153  
 111186476.452    86638832.7304   21158083.630 8  21158082.85546  21158085.78346
      2819.066        2196.683  
 105636361.344    82161634.083    19782296.888 8  19782296.797 8  19782301.133 7
      2028.011        1577.347  
 108446407.338    84347226.844    20251600.818 8  20251600.735 8  20251601.360 7
      3803.050        2957.927  
 108291758.822    84226947.840    20315258.405 7  20315258.435 7  20315265.453 6
      5484.432        4265.672  
 112964103.961    88023995.0804   21496352.947 8  21496353.87246  21496357.17546
      5628.561        4385.897  
 113579313.423    88339490.669    21217571.721 7  21217569.959 7  21217568.634 6
       150.380         116.961  
 117477604.892    91541009.7154   22355244.531 7  22355243.88844  22355248.45944
       927.991         723.116  
 120147777.106    93621664.0114   22863361.255 7  22863361.03245  22863365.87445
      5851.480        4559.590  
 118239462.315    91964042.460    22150234.264 7  22150233.807 6  22150238.709 6
      3498.349        2720.942  
 125152306.322    97521298.8134   23815692.478 7  23815692.36844  23815697.97344
        40.016          31.203  
 120968111.982    94086336.074    22613715.146 5  22613712.840 5  22613716.063 5
      6910.827        5375.078  
 123529634.875    96078630.706    23108773.987 6  23108773.266 6  23108778.860 5
      7257.917        5645.048  
 127889294.901    99654016.8834   24336522.543 6  24336522.51343  24336529.33943
      6733.800        5247.129  
 130578317.458   101749363.2534   24848229.112 6  24848228.22042  24848233.20442
      6084.580        4741.207  
 128346487.706   100010268.7274   24423524.058 6  24423523.18443  24423528.57443
      7129.927        5555.769  
 11  5 30 12 28 10.0000000  0 16G26G28R 9R 8R10G15R 7G 8G27R18G 5R19
                                R 1G17G18G 9                        
 104947798.765    81777525.1674   19970902.195 8  19970902.03446  19970905.47146
      2908.588        2266.431  
 111172378.159    86627847.0484   21155400.828 8  21155400.16646  21155403.10646
      2820.262        2197.605  
 105626217.503    82153744.422    19780396.283 8  19780396.794 8  19780401.366 8
      2029.645        1578.617  
 108427394.300    84332438.927    20248050.736 8  20248050.415 7  20248050.690 7
      3802.267        2957.321  
 108264332.299    84205616.110    20310114.555 7  20310113.871 7  20310120.219 6
      5486.334        4267.152  
 112935957.192    88002062.5314   21490997.567 7  21490997.83646  21491001.08146
      5630.219        4387.175  
 113578557.921    88338903.044    21217429.190 7  21217427.786 7  21217427.411 6
       151.709         118.001  
 117472957.964    91537388.7174   22354360.165 6  22354359.52644  22354364.10044
       930.662         725.184  
 120118512.693    93598860.5744   22857792.276 7  22857792.13645  22857796.84045
      5854.254        4561.755  
 118221972.870    91950439.554    22146958.069 7  22146957.611 6  22146962.215 6
      3497.535        2720.314  
 125152099.077    97521137.2954   23815653.758 7  23815653.18444  23815658.68044
        42.897          33.424  
 120933553.964    94059457.616    22607254.051 6  22607253.229 6  22607255.116 5
      6912.280        5376.218  
 123493341.462    96050402.516    23101985.047 6  23101984.242 6  23101989.094 5
      7259.409        5646.214  
 127855618.455    99627775.4994   24330114.704 6  24330114.69543  24330120.45643
      6736.654        5249.333  
 130547890.381   101725653.8414   24842439.321 6  24842438.50342  24842442.95042
      6086.404        4742.662  
 128310829.771    99982483.3264   24416738.552 6  24416737.91043  24416742.82543
      7133.227        5558.332  
 11  5 30 12 28 15.0000000  0 16G26G28R 9R 8R10G15R 7G 8G27R18G 5R19
                                R 1G17G18G 9                        
 104933253.493    81766191.1844   19968134.612 8  19968134.22747  19968137.62846
      2909.396        2267.053  
 111158273.805    86616856.6354   21152716.693 7  21152716.02346  21152719.19246
      2821.452        2198.535  
 105616064.642    82145847.754    19778495.608 8  19778495.662 8  19778499.861 7
      2031.375        1579.944  
 108408384.949    84317653.873    20244501.707 8  20244501.018 8  20244500.938 7
      3801.468        2956.701  
 108236896.644    84184277.274    20304967.099 7  20304966.742 7  20304973.378 6
      5487.964        4268.404  
 112907801.658    87980123.1594   21485639.955 8  21485639.94846  21485643.23246
      5631.871        4388.468  
 113577797.081    88338311.273    21217288.004 7  21217285.619 7  21217285.199 6
       152.477         118.581  
 117468297.384    91533757.0914   22353472.476 7  22353472.46344  22353477.19344
       933.553         727.436  
 120089233.761    93576045.8314   22852221.004 7  22852220.66645  22852225.26345
      5857.118        4563.988  
 118204486.392    91936838.953    22143681.758 7  22143681.231 6  22143686.369 6
      3497.019        2719.894  
 125151876.593    97520963.9104   23815610.922 7  23815610.93144  23815616.36944
        45.899          35.748  
 120898988.831    94032573.632    22600793.047 6  22600791.945 6  22600793.868 5
      6913.491        5377.147  
 123457039.942    96022168.011    23095194.443 7  23095193.964 6  23095198.461 5
      7261.074        5647.476  
 127821925.856    99601521.5204   24323703.601 6  24323703.73743  24323709.27743
      6740.032        5251.985  
 130517453.812   101701937.0344   24836646.898 6  24836646.66842  24836651.45742
      6088.597        4744.371  
 128275154.354    99954684.3114   24409949.545 6  24409948.94343  24409954.41843
      7136.622        5560.966  
 11  5 30 12 28 20.0000000  0 16G26G28R 9R 8R10G15R 7G 8G27R18G 5R19
                                R 1G17G18G 9                        
 104918705.115    81754854.7854   19965366.175 8  19965365.88047  19965369.11647
      2910.072        2267.593  
 111144163.746    86605861.7834   21150031.087 8  21150030.72646  21150034.06446
      2822.493        2199.351  
 105605902.981    82137944.238    19776593.058 8  19776592.859 8  19776596.612 7
      2033.119        1581.318  
 108389379.569    84302871.904    20240951.837 8  20240951.235 8  20240951.738 7
      3800.779        2956.172  
 108209452.046    84162931.476    20299819.063 7  20299818.248 7  20299824.979 6
      5489.941        4269.959  
 112879637.702    87958177.2144   21480281.064 8  21480280.69946  21480283.77846
      5633.694        4389.888  
 113577031.803    88337716.041    21217144.759 7  21217143.090 7  21217141.935 6
       153.634         119.496  
 117463623.513    91530115.1074   22352583.254 6  22352583.03744  22352588.06144
       936.019         729.378  
 120059940.606    93553220.0074   22846646.197 7  22846646.34145  22846650.93045
      5859.994        4566.212  
 118187003.139    91923240.865    22140407.108 7  22140406.281 6  22140411.181 6
      3496.247        2719.303  
 125151639.210    97520778.9254   23815565.502 7  23815565.82744  23815571.17244
        48.729          37.982  
 120864416.712    94005684.225    22594329.587 6  22594328.505 6  22594331.525 6
      6915.000        5378.321  
 123420730.826    95993927.599    23088402.011 7  23088401.891 6  23088405.721 5
      7262.531        5648.635  
 127788217.484    99575255.2624   24317288.382 6  24317288.61643  24317294.49343
      6743.209        5254.458  
 130487008.128   101678213.1204   24830853.113 5  24830852.72142  24830857.22242
      6090.249        4745.646  
 128239461.806    99926871.9474   24403157.826 6  24403156.89143  24403162.68143
      7140.292        5563.874  
 11  5 30 12 28 25.0000000  0 16G26G28R 9R 8R10G15R 7G 8G27R18G 5R19
                                R 1G17G18G 9                        
 104904154.041    81743516.2854   19962596.761 8  19962596.69646  19962600.09246
      2910.388        2267.828  
 111130048.247    86594862.6894   21147345.628 8  21147344.87546  21147347.85546
      2823.719        2200.303  
 105595732.892    82130034.172    19774688.169 8  19774688.308 8  19774692.147 8
      2034.784        1582.608  
 108370378.720    84288093.464    20237404.370 8  20237403.293 8  20237403.427 7
      3799.633        2955.279  
 108181998.779    84141578.940    20294668.308 7  20294667.960 7  20294674.756 6
      5491.461        4271.131  
 112851465.666    87936224.9794   21474920.446 8  21474919.73746  21474922.90146
      5635.180        4391.056  
 113576261.023    88337116.537    21217000.127 7  21216999.244 7  21216998.291 6
       154.643         120.281  
 117458936.576    91526462.9394   22351691.963 6  22351691.11744  22351695.74644
       938.535         731.320  
 120030633.596    93530383.3744   22841069.953 7  22841069.32145  22841073.97445
      5862.857        4568.457  
 118169523.552    91909645.632    22137131.802 7  22137131.642 6  22137136.396 6
      3495.451        2718.682  
 125151387.255    97520582.5694   23815517.407 7  23815518.07644  23815523.32244
        51.690          40.267  
 120829838.213    93978789.818    22587866.690 6  22587865.007 6  22587867.123 6
      6916.181        5379.263  
 123384414.476    95965681.545    23081609.261 7  23081608.303 6  23081611.672 5
      7263.815        5649.641  
 127754493.676    99548976.9844   24310872.370 6  24310871.57243  24310877.11743
      6746.093        5256.699  
 130456553.608   101654482.3244   24825057.833 6  24825057.23942  24825062.18242
      6091.723        4746.778  
 128203752.484    99899046.5164   24396361.030 6  24396361.44043  24396367.74743
      7143.495        5566.349  
 11  5 30 12 28 30.0000000  0 16G26G28R 9R 8R10G15R 7G 8G27R18G 5R19
                                R 1G17G18G 9                        
 104889600.362    81732175.7544   19959827.380 8  19959827.21547  19959830.70747
      2910.883        2268.220  
 111115927.610    86583859.5954   21144658.788 8  21144658.04746  21144660.75346
      2824.676        2201.049  
 105585554.734    82122117.823    19772782.390 8  19772782.594 8  19772786.347 7
      2036.311        1583.796  
 108351382.338    84273318.501    20233856.569 8  20233856.240 8  20233855.670 7
      3798.847        2954.658  
 108154537.201    84120219.937    20289517.097 7  20289516.420 7  20289522.833 6
      5493.108        4272.413  
 112823285.825    87914266.6734   21469557.339 8  21469557.25246  21469560.41346
      5636.725        4392.253  
 113575485.573    88336513.409    21216855.501 7  21216854.132 7  21216853.329 6
       155.537         120.961  
 117454236.909    91522800.8594   22350797.333 6  22350796.74044  22350801.30644
       941.238         733.429  
 120001313.008    93507536.1704   22835490.710 7  22835489.92845  22835494.53345
      5865.599        4570.595  
 118152047.934    91896053.485    22133858.425 7  22133857.652 6  22133862.651 6
      3494.520        2717.965  
 125151120.971    97520375.0514   23815467.832 7  23815467.43945  23815472.65644
        54.590          42.542  
 120795253.596    93951890.693    22581401.233 6  22581399.730 6  22581402.382 6
      6917.410        5380.216  
 123348090.924    95937429.905    23074812.228 6  23074812.013 6  23074816.773 5
      7265.483        5650.920  
 127720754.700    99522686.8884   24304451.935 6  24304452.10343  24304456.82643
      6749.393        5259.262  
 130426090.553   101630744.8744   24819261.681 6  24819260.97242  24819265.06942
      6093.421        4748.160  
 128168026.612    99871208.1804   24389563.190 6  24389563.40543  24389569.25343
      7146.830        5568.955  
 11  5 30 12 28 35.0000000  0 16G26G28R 9R 8R10G15R 7G 8G27R18G 5R19
                                R 1G17G18G 9                        
 104875044.485    81720833.5074   19957057.618 8  19957057.46747  19957061.01847
      2911.461        2268.672  
 111101802.196    86572852.7814   21141970.695 8  21141970.10946  21141972.72746
      2825.697        2201.841  
 105575368.791    82114195.423    19770874.906 8  19770874.893 8  19770878.913 8
      2038.096        1585.178  
 108332391.027    84258547.484    20230310.442 8  20230310.008 8  20230309.568 7
      3797.882        2953.906  
 108127067.657    84098854.740    20284363.936 8  20284363.277 7  20284369.566 6
      5494.834        4273.759  
 112795098.550    87892302.5654   21464193.520 8  21464193.39946  21464196.50046
      5638.333        4393.504  
 113574705.815    88335906.912    21216710.258 7  21216708.579 7  21216707.884 6
       156.503         121.741  
 117449524.856    91519129.1054   22349900.658 6  22349900.41844  22349904.86444
       943.709         735.355  
 119971979.182    93484678.6464   22829908.515 7  22829907.93745  22829912.62145
      5868.179        4572.611  
 118134576.509    91882464.584    22130585.134 7  22130584.570 6  22130589.756 6
      3493.993        2717.555  
 125150840.704    97520156.6424   23815413.670 7  23815414.16345  23815419.31445
        57.539          44.819  
 120760662.935    93924986.845    22574933.958 5  22574933.384 5  22574936.143 6
      6919.147        5381.561  
 123311760.909    95909173.232    23068015.828 6  23068015.186 6  23068020.528 5
      7266.634        5651.831  
 127687000.953    99496385.2894   24298028.194 6  24298027.98643  24298033.63143
      6752.428        5261.622  
 130395619.363   101607001.0964   24813462.553 6  24813462.27542  24813466.26542
      6095.082        4749.395  
 128132284.635    99843357.2844   24382761.389 6  24382761.90043  24382767.07643
      7150.256        5571.641  
 11  5 30 12 28 40.0000000  0 16G26G28R 9R 8R10G15R 7G 8G27R18G 5R19
                                R 1G17G18G 9                        
 104860486.508    81709489.6254   19954287.548 8  19954287.32946  19954290.74546
      2911.850        2268.984  
 111087672.065    86561842.2914   21139281.664 8  21139280.97246  21139283.76046
      2826.471        2202.455  
 105565175.095    82106266.986    19768966.240 8  19768965.773 8  19768970.132 7
      2039.422        1586.228  
 108313404.798    84243780.418    20226765.481 8  20226764.672 8  20226764.051 7
      3796.790        2953.057  
 108099590.320    84077483.484    20279209.181 7  20279208.705 7  20279214.733 6
      5496.225        4274.837  
 112766903.921    87870332.7214   21458827.765 8  21458828.07246  21458831.29146
      5639.666        4394.552  
 113573922.404    88335297.592    21216564.230 7  21216562.384 7  21216561.767 6
       157.216         122.288  
 117444800.440    91515447.7374   22349001.733 6  22349001.34244  22349005.66244
       946.104         737.232  
 119942632.150    93461810.8364   22824323.504 7  22824323.36245  22824327.97345
      5870.760        4574.627  
 118117109.399    91868879.051    22127312.767 7  22127312.420 6  22127317.351 6
      3493.023        2716.791  
 125150546.470    97519927.3614   23815357.963 7  23815357.99144  23815363.42444
        60.346          47.046  
 120726066.709    93898078.697    22568466.583 6  22568465.787 5  22568467.998 5
      6919.985        5382.223  
 123275424.202    95880911.366    23061218.008 6  23061217.434 6  23061222.648 5
      7268.146        5653.005  
 127653232.532    99470072.2484   24291601.067 6  24291601.39243  24291607.61143
      6754.938        5263.590  
 130365140.094   101583251.0304   24807662.953 6  24807661.82542  24807666.48442
      6096.608        4750.610  
 128096526.504    99815493.8104   24375957.395 6  24375957.30343  24375962.54943
      7153.317        5574.040  
 11  5 30 12 28 45.0000000  0 16G26G28R 9R 8R10G15R 7G 8G27R18G 5R19
                                R 1G17G18G 9                        
 104845926.997    81698144.5514   19951516.734 8  19951516.74747  19951520.05046
      2912.039        2269.121  
 111073537.783    86550828.5654   21136592.015 8  21136591.20246  21136593.98746
      2827.278        2203.072  
 105554974.206    82098332.959    19767055.547 8  19767055.386 7  19767059.575 8
      2040.855        1587.325  
 108294424.034    84229017.598    20223219.791 8  20223219.760 8  20223219.581 7
      3795.552        2952.082  
 108072105.578    84056106.461    20274053.293 8  20274052.773 7  20274058.546 6
      5497.640        4275.943  
 112738702.498    87848357.5904   21453461.842 8  21453461.53646  21453464.70546
      5640.977        4395.568  
 113573134.098    88334684.450    21216416.853 7  21216414.950 7  21216414.352 6
       158.240         123.090  
 117440064.245    91511757.1784   22348100.782 7  22348100.27444  22348104.68544
       948.478         739.068  
 119913272.499    93438933.1904   22818735.907 7  22818736.19945  22818740.89245
      5873.173        4576.483  
 118099647.068    91855297.236    22124041.823 7  22124041.501 6  22124047.094 6
      3491.690        2715.767  
 125150238.867    97519687.6624   23815300.137 7  23815299.71544  23815304.73344
        62.710          48.861  
 120691465.315    93871166.474    22561997.445 5  22561996.307 5  22561999.626 5
      6920.753        5382.809  
 123239081.639    95852644.939    23054418.866 6  23054418.504 6  23054423.728 5
      7268.845        5653.542  
 127619449.906    99443748.1544   24285172.489 6  24285172.53643  24285178.82643
      6758.079        5266.035  
 130334653.334   101559495.1274   24801860.398 6  24801860.36842  24801864.95942
      6097.904        4751.575  
 128060752.854    99787618.2454   24369150.109 6  24369149.92743  24369154.91443
      7156.371        5576.390  
 11  5 30 12 28 50.0000000  0 16G26G28R 9R 8R10G15R 7G 8G27R18G 5R19
                                R 1G17G18G 9                        
 104831366.425    81686798.6504   19948746.249 8  19948745.87546  19948749.25946
      2912.267        2269.293  
 111059399.797    86539811.9444   21133901.481 8  21133900.87846  21133903.67846
      2828.022        2203.650  
 105544766.628    82090393.726    19765143.500 8  19765143.829 8  19765148.012 8
      2042.367        1588.515  
 108275449.480    84214259.618    20219677.288 8  20219676.501 8  20219676.546 7
      3794.277        2951.110  
 108044613.936    84034724.074    20268895.910 8  20268895.183 7  20268901.397 6
      5498.869        4276.898  
 112710494.751    87826377.5274   21448093.939 8  21448093.83546  21448096.85946
      5642.199        4396.513  
 113572342.511    88334068.760    21216268.120 7  21216266.949 7  21216266.438 6
       158.303         123.133  
 117435316.720    91508057.8074   22347197.308 6  22347196.75244  22347201.23544
       950.606         740.733  
 119883900.752    93416046.1244   22813146.475 7  22813146.78445  22813151.73845
      5875.583        4578.361  
 118082190.176    91841719.666    22120770.845 7  22120770.921 7  22120776.857 6
      3490.980        2715.207  
 125149918.352    97519437.8854   23815239.187 7  23815238.75845  23815243.82145
        65.415          50.974  
 120656859.316    93844250.660    22555527.700 6  22555527.851 5  22555531.349 5
      6921.855        5383.671  
 123202733.539    95824374.201    23047620.571 6  23047619.357 6  23047624.220 5
      7270.156        5654.556  
 127585653.689    99417413.4344   24278741.957 6  24278742.24643  24278747.62343
      6760.940        5268.287  
 130304159.524   101535733.7314   24796058.420 6  24796058.17742  24796062.47342
      6099.502        4752.836  
 128024964.135    99759730.9424   24362339.750 6  24362339.24843  24362344.88443
      7159.203        5578.609  
 11  5 30 12 28 55.0000000  0 16G26G28R 9R 8R10G15R 7G 8G27R18G 5R19
                                R 1G17G18G 9                        
 104816805.022    81675452.0984   19945975.194 8  19945974.96747  19945978.15146
      2912.422        2269.425  
 111045258.301    86528792.5944   21131210.352 8  21131209.56446  21131212.57946
      2828.721        2204.199  
 105534552.570    82082449.455    19763231.129 8  19763230.924 8  19763235.276 7
      2043.449        1589.355  
 108256481.264    84199506.554    20216135.101 8  20216134.385 8  20216134.311 7
      3792.896        2950.037  
 108017115.778    84013336.622    20263737.139 8  20263736.689 7  20263742.666 6
      5500.242        4277.966  
 112682280.969    87804392.7624   21442724.655 8  21442724.89446  21442728.01846
      5643.403        4397.461  
 113571549.273    88333451.797    21216119.483 7  21216118.559 7  21216118.325 6
       158.999         123.665  
 117430558.076    91504349.7834   22346292.508 6  22346291.45744  22346295.71844
       952.841         742.484  
 119854517.075    93393149.7554   22807555.212 7  22807555.19445  22807560.14345
      5877.972        4580.239  
 118064738.937    91828146.493    22117502.073 7  22117501.655 7  22117507.508 6
      3489.745        2714.244  
 125149585.157    97519178.2344   23815175.056 7  23815175.29744  23815180.29544
        67.874          52.898  
 120622249.040    93817331.575    22549058.924 6  22549057.921 5  22549061.353 6
      6922.508        5384.161  
 123166380.313    95796099.485    23040820.138 6  23040819.060 6  23040823.926 5
      7271.285        5655.445  
 127551844.027    99391068.2684   24272308.235 6  24272308.38843  24272313.59543
      6763.023        5269.897  
 130273658.944   101511967.0484   24790254.078 6  24790254.27542  24790258.74942
      6100.731        4753.813  
 127989160.636    99731832.1274   24355526.435 6  24355525.97343  24355531.53043
      7162.372        5581.061  
 11  5 30 12 29  0.0000000  0 16G26G28R 9R 8R10G15R 7G 8G27R18G 5R19
                                R 1G17G18G 9                        
 104802243.014    81664105.0784   19943204.071 8  19943203.90447  19943207.15247
      2912.500        2269.481  
 111031113.617    86517770.7604   21128518.285 8  21128517.91446  21128520.87146
      2829.368        2204.703  
 105524332.307    82074500.359    19761317.079 8  19761317.181 8  19761321.258 7
      2044.587        1590.234  
 108237519.666    84184758.644    20212594.257 8  20212593.616 8  20212592.960 7
      3791.657        2949.065  
 107989611.296    83991944.253    20258577.419 7  20258576.929 7  20258583.066 6
      5501.517        4278.962  
 112654061.435    87782403.5144   21437355.128 8  21437354.94346  21437358.09646
      5644.460        4398.290  
 113570752.480    88332832.058    21215971.560 7  21215970.128 7  21215969.558 6
       159.841         124.335  
 117425788.631    91500633.2984   22345384.598 7  22345384.03444  22345388.13744
       955.005         744.166  
 119825121.741    93370244.3044   22801962.003 7  22801961.69145  22801966.34945
      5880.473        4582.202  
 118047293.621    91814577.915    22114233.940 7  22114233.740 7  22114239.708 6
      3488.337        2713.140  
 125149239.481    97518908.8554   23815109.273 7  23815109.44344  23815114.57944
        70.431          54.900  
 120587634.601    93790409.263    22542587.049 5  22542587.341 5  22542590.126 5
      6923.254        5384.783  
 123130022.138    95767820.928    23034017.556 6  23034017.012 6  23034021.857 5
      7272.078        5656.071  
 127518021.235    99364712.8614   24265872.348 6  24265872.46943  24265877.55143
      6765.917        5272.162  
 130243151.851   101488195.2884   24784449.486 6  24784448.67742  24784453.33542
      6101.999        4754.814  
 127953342.610    99703921.9694   24348710.778 6  24348710.20843  24348715.78443
      7165.094        5583.185  
 11  5 30 12 29  5.0000000  0 16G26G28R 9R 8R10G15R 7G 8G27R18G 5R19
                                R 1G17G18G 9                        
 104787680.587    81652757.7364   19940433.062 8  19940432.75646  19940436.08046
      2912.565        2269.526  
 111016965.777    86506746.4684   21125825.861 8  21125825.55646  21125828.71246
      2830.070        2205.248  
 105514105.863    82066546.460    19759402.033 8  19759402.131 8  19759406.357 7
      2045.929        1591.272  
 108218564.872    84170016.026    20209054.232 8  20209053.561 7  20209053.436 7
      3790.330        2948.029  
 107962100.547    83970547.003    20253416.455 8  20253415.853 7  20253422.116 6
      5502.884        4280.016  
 112625836.172    87760409.8044   21431983.475 8  21431983.83246  21431986.92346
      5645.753        4399.281  
 113569952.164    88332209.591    21215821.926 7  21215820.411 7  21215819.836 6
       160.245         124.618  
 117421008.460    91496908.4844   22344473.646 6  22344473.60844  22344478.76644
       957.223         745.918  
 119795714.877    93347329.8694   22796366.356 7  22796365.90645  22796370.44245
      5882.700        4583.908  
 118029854.210    91801013.932    22110967.534 7  22110966.849 7  22110972.717 6
      3487.380        2712.413  
 125148881.393    97518629.8204   23815040.931 7  23815041.23844  23815046.58544
        72.889          56.793  
 120553016.255    93763483.869    22536114.781 6  22536115.683 5  22536118.686 6
      6924.080        5385.400  
 123093659.175    95739538.631    23027214.719 6  23027214.737 6  23027219.430 5
      7273.107        5656.856  
 127484185.428    99338347.3004   24259433.548 6  24259433.21243  24259438.98943
      6768.469        5274.103  
 130212638.391   101464418.5654   24778642.834 6  24778641.96842  24778647.31842
      6103.416        4755.921  
 127917510.105    99676000.5494   24341891.970 6  24341891.25343  24341896.80743
      7168.077        5585.535  
 11  5 30 12 29 10.0000000  0 16G26G28R 9R 8R10G15R 7G 8G27R18G 5R19
                                R 1G17G18G 9                        
 104773117.549    81641409.9054   19937661.720 8  19937661.49246  19937664.68546
      2912.670        2269.630  
 111002814.760    86495719.6934   21123133.078 8  21123132.66146  21123135.89846
      2830.477        2205.571  
 105503873.267    82058587.770    19757486.294 8  19757486.250 8  19757489.975 8
      2047.075        1592.184  
 108199616.713    84155278.568    20205515.460 8  20205515.377 8  20205515.025 7
      3788.875        2946.912  
 107934583.434    83949144.810    20248254.410 8  20248254.038 7  20248259.821 6
      5503.912        4280.830  
 112597605.188    87738411.6364   21426611.457 8  21426611.63646  21426614.61446
      5646.696        4400.031  
 113569150.386    88331585.974    21215671.995 7  21215670.398 7  21215669.983 6
       160.611         124.925  
 117416217.391    91493175.1794   22343562.640 6  22343561.89044  22343567.08344
       959.145         747.365  
 119766296.387    93324406.3784   22790768.063 7  22790767.70645  22790772.18045
      5884.901        4585.627  
 118012420.759    91787454.601    22107702.312 7  22107701.237 7  22107706.704 6
      3486.147        2711.444  
 125148510.896    97518341.0934   23814970.639 7  23814970.66744  23814976.10044
        75.349          58.716  
 120518393.760    93736555.270    22529644.726 6  22529643.710 5  22529646.787 6
      6924.934        5386.062  
 123057291.378    95711252.579    23020411.971 6  23020411.396 6  23020415.730 5
      7273.994        5657.550  
 127450336.583    99311971.5834   24252992.823 6  24252991.91843  24252997.34143
      6770.971        5276.115  
 130182118.430   101440636.7914   24772834.884 6  24772834.18342  24772838.86442
      6104.522        4756.758  
 127881663.119    99648067.8294   24335070.917 6  24335070.23843  24335075.69843
      7170.787        5587.620  
 11  5 30 12 29 15.0000000  0 16G26G28R 9R 8R10G15R 7G 8G27R18G 5R19
                                R 1G17G18G 9                        
 104758554.626    81630062.1724   19934890.308 8  19934890.30546  19934893.59546
      2912.483        2269.465  
 110988661.204    86484690.9474   21120439.847 8  21120439.36046  21120442.35046
      2830.958        2205.936  
 105493635.155    82050624.794    19755569.047 8  19755568.839 8  19755572.866 7
      2048.205        1593.047  
 108180675.865    84140546.798    20201978.296 8  20201977.947 8  20201978.021 7
      3787.350        2945.712  
 107907060.802    83927738.326    20243091.244 8  20243090.720 7  20243096.742 6
      5505.134        4281.762  
 112569369.195    87716409.5644   21421238.292 8  21421238.43946  21421241.51946
      5647.574        4400.696  
 113568346.297    88330960.562    21215522.678 7  21215520.370 7  21215519.807 6
       161.056         125.242  
 117411416.191    91489433.9634   22342648.295 6  22342648.12344  22342653.29744
       961.243         749.017  
 119736866.974    93301474.3704   22785167.351 7  22785167.30045  22785172.08545
      5887.131        4587.368  
 117994993.786    91773900.273    22104437.023 7  22104436.336 7  22104442.027 6
      3484.768        2710.366  
 125148128.596    97518043.1954   23814897.506 7  23814897.99544  23814903.34644
        77.703          60.528  
 120483768.051    93709624.175    22523171.377 6  22523170.572 6  22523173.689 5
      6925.266        5386.305  
 123020919.476    95682963.322    23013608.046 6  23013607.628 6  23013611.714 5
      7274.901        5658.242  
 127416475.335    99285586.2054   24246548.683 6  24246548.76743  24246554.24243
      6773.398        5277.974  
 130151592.688   101416850.5164   24767026.113 6  24767025.77242  24767030.31242
      6105.636        4757.611  
 127845802.330    99620124.3724   24328246.634 6  24328246.17843  24328251.33043
      7173.492        5589.724  
 11  5 30 12 29 20.0000000  0 16G26G28R 9R 8R10G15R 7G 8G27R18G 5R19
                                R 1G17G18G 9                        
 104743991.863    81618714.5604   19932119.182 8  19932119.06047  19932122.26646
      2912.470        2269.455  
 110974505.177    86473660.2784   21117745.969 8  21117745.49446  21117748.39546
      2831.520        2206.376  
 105483391.587    82042657.568    19753650.424 8  19753650.420 8  19753654.512 7
      2049.307        1593.908  
 108161742.588    84125820.919    20198443.353 8  20198442.323 8  20198442.147 7
      3785.948        2944.614  
 107879532.584    83906327.495    20237927.287 7  20237926.542 7  20237932.647 6
      5506.118        4282.528  
 112541128.189    87694403.5814   21415864.334 8  21415864.33446  21415867.43446
      5648.604        4401.497  
 113567539.339    88330332.913    21215371.333 7  21215369.482 7  21215369.195 6
       161.488         125.610  
 117406604.964    91485684.9264   22341733.035 6  22341732.75144  22341737.90444
       963.326         750.648  
 119707426.681    93278533.8904   22779565.388 7  22779564.82445  22779569.68845
      5889.217        4589.003  
 117977573.516    91760351.182    22101173.095 7  22101173.184 7  22101177.845 6
      3483.376        2709.294  
 125147734.623    97517736.1734   23814821.577 6  23814822.94344  23814828.12844
        79.970          62.295  
 120449139.166    93682690.608    22516697.446 6  22516696.746 5  22516699.960 6
      6925.975        5386.857  
 122984543.534    95654670.944    23006803.524 6  23006802.792 6  23006807.177 5
      7275.535        5658.743  
 127382601.769    99259191.2424   24240103.209 6  24240102.99043  24240108.21643
      6775.706        5279.784  
 130121061.315   101393059.8224   24761215.568 6  24761215.44442  24761219.94042
      6106.646        4758.422  
 127809927.712    99592170.1324   24321419.740 6  24321419.84043  24321424.90243
      7176.242        5591.881  
 11  5 30 12 29 25.0000000  0 16G26G28R 9R 8R10G15R 7G 8G27R18G 5R19
                                R 1G17G18G 9                        
 104729429.580    81607367.3234   19929348.226 8  19929347.91047  19929351.12646
      2912.563        2269.532  
 110960346.891    86462627.8504   21115051.638 8  21115051.18546  21115054.20646
      2832.024        2206.766  
 105473142.743    82034686.246    19751730.967 8  19751730.980 7  19751735.182 8
      2050.399        1594.756  
 108142816.863    84111100.912    20194909.110 8  20194908.177 8  20194907.905 7
      3784.361        2943.396  
 107851998.971    83884912.469    20232761.232 7  20232760.814 7  20232767.354 6
      5507.274        4283.424  
 112512882.406    87672393.8884   21410489.282 7  21410489.39146  21410492.39946
      5649.775        4402.414  
 113566731.586    88329704.657    21215220.101 7  21215218.565 7  21215218.110 6
       161.913         125.924  
 117401783.800    91481928.1744   22340815.795 6  22340815.25244  22340820.47544
       965.237         752.151  
 119677975.766    93255585.1274   22773961.264 7  22773960.62345  22773965.60345
      5891.233        4590.572  
 117960160.190    91746807.482    22097912.085 7  22097911.341 7  22097916.195 6
      3481.847        2708.098  
 125147329.081    97517420.1464   23814745.374 7  23814746.03844  23814750.96844
        82.205          64.067  
 120414507.201    93655754.671    22510222.392 5  22510222.251 5  22510225.541 5
      6926.307        5387.095  
 122948163.763    95626375.584    22999996.734 6  22999997.015 6  23000001.649 5
      7276.438        5659.438  
 127348716.137    99232786.8814   24233654.040 6  24233654.51443  24233659.77243
      6778.344        5281.839  
 130090524.428   101369264.8584   24755404.816 6  24755404.49842  24755408.54342
      6107.979        4759.473  
 127774039.558    99564205.3474   24314589.698 6  24314590.16943  24314595.41143
      7179.088        5594.093  
 11  5 30 12 29 30.0000000  0 16G26G28R 9R 8R10G15R 7G 8G27R18G 5R19
                                R 1G17G18G 9                        
 104714867.772    81596020.4604   19926576.990 8  19926576.86246  19926580.06946
      2912.272        2269.303  
 110946186.373    86451593.6784   21112357.274 8  21112356.78646  21112359.61546
      2832.231        2206.935  
 105462888.675    82026710.858    19749810.678 8  19749810.583 8  19749814.877 7
      2051.270        1595.437  
 108123898.678    84096386.765    20191375.821 8  20191375.312 8  20191375.407 7
      3782.746        2942.132  
 107824460.108    83863493.347    20227594.692 7  20227594.502 7  20227601.055 6
      5508.377        4284.292  
 112484631.924    87650380.5254   21405113.113 8  21405113.40746  21405116.64846
      5650.647        4403.102  
 113565920.736    88329073.993    21215068.637 7  21215067.046 7  21215066.097 6
       162.249         126.198  
 117396952.818    91478163.7354   22339896.942 6  22339896.01544  22339901.06544
       967.250         753.713  
 119648514.195    93232628.0654   22768355.175 7  22768354.42145  22768359.18045
      5893.405        4592.267  
 117942753.756    91733269.120    22094650.043 7  22094650.144 7  22094655.074 6
      3480.810        2707.297  
 125146911.946    97517095.0874   23814666.194 6  23814666.37444  23814671.81044
        84.512          65.855  
 120379872.518    93628816.599    22503748.223 5  22503747.064 5  22503750.869 5
      6927.048        5387.713  
 122911780.199    95598077.273    22993191.161 6  22993190.419 6  22993194.781 5
      7276.997        5659.880  
 127314818.497    99206373.1514   24227203.961 6  24227204.08243  24227208.99243
      6780.895        5283.806  
 130059982.093   101345465.6294   24749592.314 6  24749592.53142  24749597.14242
      6108.814        4760.111  
 127738137.947    99536230.0634   24307757.858 6  24307758.05343  24307763.32143
      7181.562        5596.035  
 11  5 30 12 29 35.0000000  0 16G26G28R 9R 8R10G15R 7G 8G27R18G 5R19
                                R 1G17G18G 9                        
 104700306.586    81584674.0794   19923806.164 8  19923805.95246  19923809.25946
      2912.171        2269.231  
 110932023.828    86440557.9284   21109662.411 7  21109661.71546  21109664.67246
      2832.844        2207.415  
 105452629.624    82018731.597    19747889.440 8  19747889.366 8  19747893.645 7
      2052.236        1596.188  
 108104988.693    84081678.997    20187844.620 8  20187843.989 8  20187844.239 7
      3781.126        2940.877  
 107796916.282    83842070.375    20222428.015 8  20222427.543 7  20222433.898 6
      5509.282        4284.994  
 112456376.944    87628363.6574   21399736.317 8  21399736.69246  21399739.89646
      5651.472        4403.751  
 113565108.823    88328442.488    21214917.411 7  21214915.657 7  21214914.557 6
       162.560         126.449  
 117392112.184    91474391.8054   22338975.875 7  22338974.97744  22338979.78444
       969.176         755.202  
 119619042.267    93209662.9324   22762746.835 7  22762746.15345  22762750.75245
      5895.319        4593.750  
 117925354.532    91719736.374    22091390.726 7  22091390.650 7  22091395.530 6
      3478.949        2705.852  
 125146483.528    97516761.2314   23814584.831 7  23814584.83044  23814590.44644
        86.830          67.647  
 120345235.038    93601876.312    22497272.998 5  22497272.725 5  22497276.012 5
      6927.641        5388.160  
 122875393.155    95569776.241    22986383.410 6  22986383.491 6  22986387.925 5
      7277.669        5660.396  
 127280909.036    99179950.2124   24220749.676 6  24220750.99843  24220756.35043
      6783.100        5285.573  
 130029434.579   101321662.3894   24743779.905 6  24743779.68342  24743783.52142
      6109.815        4760.880  
 127702222.998    99508244.3914   24300924.271 6  24300923.76443  24300929.06743
      7184.424        5598.265  
 11  5 30 12 29 40.0000000  0 17G26G28R 9R 8R10G15R 7G 8G27R18G 5R19
                                R 1R16G17G18G 9                     
 104685746.705    81573328.7164   19921035.190 8  19921035.27747  19921038.53847
      2911.842        2268.972  
 110917859.966    86429521.1544   21106966.662 7  21106966.22246  21106969.45446
      2833.020        2207.551  
 105442366.220    82010748.950    19745967.432 8  19745967.586 8  19745971.654 7
      2053.096        1596.856  
 108086087.099    84066977.753    20184314.286 8  20184314.274 8  20184314.101 7
      3779.411        2939.548  
 107769368.099    83820644.015    20217260.249 7  20217259.629 7  20217266.058 6
      5510.054        4285.605  
 112428118.153    87606343.8194   21394359.113 8  21394359.32146  21394362.41446
      5652.200        4404.312  
 113564295.715    88327810.074    21214764.783 7  21214763.720 7  21214762.642 6
       162.615         126.474  
 117387262.629    91470612.9114   22338053.086 6  22338052.36744  22338056.82544
       970.721         756.419  
 119589560.595    93186690.2104   22757136.064 7  22757135.86145  22757140.62545
      5897.308        4595.303  
 117907962.962    91706209.601    22088132.168 7  22088132.192 7  22088137.526 6
      3477.519        2704.732  
 125146044.500    97516419.1184   23814501.076 7  23814501.26844  23814506.93144
        88.669          69.105  
 120310595.587    93574934.580    22490798.726 5  22490796.932 5  22490799.995 5
      6928.165        5388.588  
 122839003.188    95541472.935    22979576.446 6  22979575.902 6  22979580.143 5
      7278.249        5660.877  
 124439560.374                    23295350.515 4                                
        88.915                  
 127246988.541    99153518.6564   24214295.569 6  24214295.65243  24214301.80643
      6785.068        5287.053  
 129998882.520   101297855.5874   24737966.239 6  24737965.42542  24737969.74742
      6110.669        4761.600  
 127666295.474    99480248.9244   24294087.319 6  24294086.91943  24294092.79243
      7186.667        5599.978  
 11  5 30 12 29 45.0000000  0 17G26G28R 9R 8R10G15R 7G 8G27R18G 5R19
                                R 1R16G17G18G 9                     
 104671188.002    81561984.2734   19918264.647 8  19918264.72746  19918268.12046
      2911.587        2268.758  
 110903694.596    86418483.1984   21104271.562 8  21104270.79246  21104273.80446
      2833.289        2207.760  
 105432098.350    82002762.830    19744044.987 8  19744044.812 8  19744049.194 7
      2054.040        1597.581  
 108067193.923    84052283.064    20180786.719 8  20180786.283 8  20180786.038 7
      3777.830        2938.298  
 107741815.195    83799213.987    20212091.323 7  20212090.730 7  20212097.119 6
      5511.086        4286.409  
 112399855.432    87584320.9214   21388980.686 8  21388981.11546  21388984.25446
      5653.068        4404.996  
 113563481.738    88327176.972    21214612.603 7  21214611.837 7  21214610.502 6
       162.793         126.607  
 117382403.907    91466826.8934   22337128.616 7  22337127.77744  22337132.30944
       972.671         757.924  
 119560069.087    93163709.8184   22751524.595 7  22751523.77845  22751528.59245
      5899.284        4596.839  
 117890579.183    91692688.898    22084876.427 7  22084875.937 7  22084881.414 6
      3476.068        2703.603  
 125145594.622    97516068.5444   23814415.806 7  23814415.65444  23814421.29844
        91.002          70.919  
 120275954.024    93547991.179    22484322.048 5  22484320.518 5  22484323.949 5
      6928.481        5388.824  
 122802610.338    95513167.399    22972768.574 6  22972767.877 6  22972772.783 5
      7278.824        5661.323  
 124439108.483    96786010.625    23295265.040 5  23295266.230    23295272.467  
        92.236          71.751  
 127213056.736    99127078.2964   24207839.325 6  24207839.51543  24207845.55843
      6787.369        5288.848  
 129968325.831   101274045.1884   24732151.171 6  24732150.76842  24732155.20542
      6111.691        4762.335  
 127630355.182    99452243.5294   24287247.607 6  24287247.36943  24287253.53943
      7189.538        5602.208  
 11  5 30 12 29 50.0000000  0 17G26G28R 9R 8R10G15R 7G 8G27R18G 5R19
                                R 1R16G17G18G 9                     
 104656630.385    81550640.6744   19915494.854 8  19915494.60846  19915498.08846
      2911.467        2268.677  
 110889527.647    86407444.0164   21101575.771 7  21101574.96646  21101578.01146
      2833.509        2207.917  
 105421825.881    81994773.125    19742121.040 8  19742121.113 8  19742125.421 7
      2054.899        1598.254  
 108048309.226    84037594.966    20177260.017 8  20177259.514 8  20177259.438 7
      3776.181        2937.026  
 107714257.790    83777780.447    20206921.106 7  20206920.729 7  20206927.420 6
      5512.060        4287.172  
 112371588.684    87562294.8814   21383601.783 8  21383602.15946  21383605.21446
      5653.785        4405.542  
 113562666.365    88326542.789    21214461.191 7  21214459.860 7  21214458.677 6
       163.341         127.053  
 117377535.990    91463033.7024   22336202.203 7  22336201.58644  22336205.83144
       974.554         759.412  
 119530567.628    93140721.6734   22745910.265 7  22745909.87445  22745914.46945
      5901.391        4598.505  
 117873202.772    91679173.892    22081620.449 7  22081620.387 7  22081626.464 6
      3474.562        2702.454  
 125145133.854    97515709.4754   23814327.587 7  23814327.97644  23814333.66344
        93.235          72.635  
 120241310.303    93521046.037    22477845.860 5  22477845.166 5  22477847.422 5
      6928.881        5389.125  
 122766214.381    95484859.436    22965960.161 6  22965959.947 6  22965963.696 5
      7279.518        5661.844  
 124438642.544    96785648.183    23295178.853 5  23295178.486 5  23295185.587 4
        94.374          73.391  
 127179113.618    99100629.1244   24201380.023 6  24201379.65243  24201386.01543
      6790.075        5290.943  
 129937764.464   101250231.1264   24726336.163 6  24726334.22542  24726339.07542
      6112.944        4763.354  
 127594402.140    99424228.1784   24280406.702 6  24280406.15543  24280411.36643
      7191.839        5604.013  
 11  5 30 12 29 55.0000000  0 17G26G28R 9R 8R10G15R 7G 8G27R18G 5R19
                                R 1R16G17G18G 9                     
 104642074.532    81539298.4494   19912724.941 8  19912724.70347  19912728.27546
      2910.923        2268.251  
 110875359.748    86396404.0904   21098879.558 7  21098879.02446  21098881.96346
      2833.815        2208.168  
 105411549.428    81986780.331    19740196.672 8  19740196.642 8  19740200.895 7
      2055.671        1598.860  
 108029433.528    84022913.867    20173734.998 8  20173734.664 8  20173734.405 7
      3774.225        2935.506  
 107686696.440    83756343.848    20201750.714 8  20201750.706 7  20201756.588 6
      5512.701        4287.659  
 112343318.581    87540266.2324   21378222.289 8  21378222.44146  21378225.58846
      5654.323        4405.968  
 113561850.397    88325908.131    21214308.918 7  21214307.364 7  21214306.649 6
       163.120         126.877  
 117372659.498    91459233.8584   22335274.054 6  22335273.37444  22335277.91644
       976.177         760.654  
 119501056.873    93117726.2884   22740294.001 7  22740294.20145  22740298.87645
      5903.125        4599.852  
 117855834.735    91665665.423    22078366.219 7  22078366.517 7  22078372.653 6
      3472.692        2700.993  
 125144662.822    97515342.4254   23814237.751 7  23814238.33944  23814244.30144
        95.320          74.268  
 120206665.224    93494099.849    22471370.271 6  22471369.396 5  22471371.287 5
      6928.906        5389.166  
 122729816.154    95456549.719    22959151.150 6  22959151.178 6  22959155.370 5
      7279.826        5662.101  
 124438163.238    96785275.360    23295086.448 5  23295087.712 5  23295095.227 4
        97.601          75.908  
 127145159.860    99074171.6734   24194918.557 6  24194918.53143  24194924.93043
      6791.931        5292.421  
 129907199.011   101226413.8934   24720520.101 6  24720518.55242  24720523.83842
      6113.506        4763.798  
 127558436.911    99396203.3214   24273563.119 6  24273562.65843  24273567.29443
      7194.075        5605.767  
 11  5 30 12 30  0.0000000  0 17G26G28R 9R 8R10G15R 7G 8G27R18G 5R19
                                R 1R16G17G18G 9                     
 104627520.781    81527957.8604   19909955.485 8  19909955.27146  19909958.81246
      2910.568        2267.980  
 110861191.304    86385363.7414   21096183.296 7  21096182.92446  21096185.75846
      2833.802        2208.169  
 105401269.571    81978784.879    19738271.627 8  19738271.502 8  19738275.651 7
      2056.370        1599.405  
 108010567.152    84008240.014    20170211.636 8  20170211.349 8  20170211.518 7
      3772.369        2934.074  
 107659131.484    83734904.434    20196579.840 7  20196579.576 7  20196585.834 6
      5513.434        4288.229  
 112315045.561    87518235.3054   21372842.294 8  21372842.24646  21372845.51046
      5655.015        4406.521  
 113561034.137    88325273.258    21214155.821 7  21214154.852 7  21214154.277 6
       163.367         127.074  
 117367774.877    91455427.6494   22334345.056 7  22334344.04445  22334348.73345
       977.666         761.817  
 119471537.227    93094723.9674   22734677.239 7  22734676.82945  22734681.48945
      5904.903        4601.212  
 117838475.385    91652163.698    22075115.386 7  22075114.808 7  22075120.824 6
      3471.097        2699.751  
 125144181.907    97514967.6674   23814146.433 7  23814146.94744  23814152.48244
        97.240          75.791  
 120172018.965    93467152.744    22464893.700 6  22464892.500 6  22464894.517 5
      6929.483        5389.623  
 122693416.084    95428238.573    22952342.320 6  22952341.920 6  22952345.668 5
      7280.154        5662.333  
 124437670.996    96784892.513    23294993.724 5  23294996.192 5  23295002.799 4
       100.060          77.792  
 127111195.886    99047706.2424   24188455.723 6  24188455.48343  24188462.09243
      6793.870        5293.936  
 129876629.912   101202593.8254   24714703.353 6  24714701.72142  24714706.51342
      6114.261        4764.382  
 127522459.933    99368169.3244   24266717.250 6  24266716.64043  24266721.52043
      7196.667        5607.802  
 11  5 30 12 30  5.0000000  0 17G26G28R 9R 8R10G15R 7G 8G27R18G 5R19
                                R 1R16G17G18G 9                     
 104612968.920    81516618.7474   19907186.320 8  19907186.07946  19907189.61146
      2910.159        2267.652  
 110847021.941    86374322.6784   21093486.809 7  21093486.37546  21093489.42246
      2833.990        2208.299  
 105390985.807    81970786.393    19736345.472 8  19736345.463 8  19736349.868 7
      2057.130        1599.995  
 107991709.946    83993573.306    20166690.701 8  20166689.636 8  20166689.697 7
      3770.533        2932.627  
 107631562.689    83713462.042    20191407.644 7  20191407.522 7  20191413.721 6
      5514.014        4288.668  
 112286769.270    87496201.8294   21367461.660 7  21367461.43446  21367464.64246
      5655.544        4406.908  
 113560217.240    88324637.885    21214003.788 7  21214002.155 7  21214001.731 6
       163.356         127.063  
 117362881.747    91451614.8154   22333413.552 6  22333412.91644  22333417.35544
       979.409         763.156  
 119442008.365    93071714.4644   22729058.309 7  22729057.75245  22729062.20245
      5906.711        4602.625  
 117821124.237    91638668.360    22071864.690 7  22071864.614 7  22071869.956 6
      3469.337        2698.373  
 125143690.768    97514584.9454   23814052.736 7  23814053.46944  23814059.17544
        99.310          77.399  
 120137371.348    93440204.660    22458417.338 5  22458415.254 5  22458416.756 5
      6929.197        5389.398  
 122657013.789    95399925.697    22945531.977 6  22945531.156 6  22945536.385 5
      7280.526        5662.614  
 124437165.485    96784499.353    23294900.200 5  23294901.085 5  23294907.801 4
       102.524          79.762  
 127077221.305    99021232.5564   24181990.734 6  24181990.02743  24181996.66943
      6795.812        5295.459  
 129846056.820   101178770.6374   24708885.232 6  24708883.86442  24708889.00342
      6115.072        4764.986  
 127486470.868    99340125.9144   24259868.269 6  24259867.58143  24259873.44143
      7198.998        5609.590  
 11  5 30 12 30 10.0000000  0 17G26G28R 9R 8R10G15R 7G 8G27R18G 5R19
                                R 1R16G17G18G 9                     
 104598419.529    81505281.5584   19904417.787 8  19904417.58647  19904421.04447
      2909.591        2267.214  
 110832852.372    86363281.4574   21090790.301 7  21090789.76246  21090792.96546
      2834.040        2208.342  
 105380698.776    81962785.373    19734418.898 8  19734419.057 8  19734423.312 7
      2057.808        1600.509  
 107972862.503    83978914.179    20163170.251 8  20163170.090 8  20163170.278 7
      3768.640        2931.165  
 107603990.696    83692017.161    20186235.842 7  20186235.009 7  20186241.015 6
      5514.734        4289.232  
 112258490.369    87474166.3244   21362080.338 8  21362080.19846  21362083.42446
      5656.051        4407.313  
 113559400.615    88324002.720    21213851.387 7  21213849.774 7  21213849.039 6
