     2.10           OBSERVATION DATA    M (MIXED)           RINEX VERSION / TYPE
Pinnacle 1.00                           30-MAY-11 20:31     PGM / RUN BY / DATE
build April 19, 2002                                        COMMENT
-Unknown-           -Unknown-                               OBSERVER / AGENCY
         Begin Pinnacle project                             COMMENT
VG_GPS                                                      COMMENT
                                                            COMMENT
                                                            COMMENT
May 30, 2011 8:29:02 pm                                     COMMENT
                                                            COMMENT
                                                            COMMENT
C:\data\VG_GPS\projekt\Pinnacle.dbd                         COMMENT
         End Pinnacle project                               COMMENT
                                                            COMMENT
1004                                                        MARKER NAME
1004                                                        MARKER NUMBER
8QG4AWP4FEO         TPS HIPER           3.3 Dec,22,2008 p6  REC # / TYPE / VERS
-Unknown-           TPSPG_A1                                ANT # / TYPE
  3913475.6706  1194998.4949  4877425.1973                  APPROX POSITION XYZ
        1.2950        0.0000        0.0000                  ANTENNA: DELTA H/E/N
     1     1                                                WAVELENGTH FACT L1/2
     7    L1    L2    C1    P1    P2    D1    D2            # / TYPES OF OBSERV
     5.000                                                  INTERVAL
  2011     5    30    15    23   10.0000000     GPS         TIME OF FIRST OBS
  2011     5    30    15    45   40.0000000     GPS         TIME OF LAST OBS
    15                                                      LEAP SECONDS
    16                                                      # OF SATELLITES
   R 1    18    18    18    18    18    18    18            PRN / # OF OBS
   R 2   271   271   271   271   271   271   271            PRN / # OF OBS
   R10   271   271   271   271   271   271   271            PRN / # OF OBS
   R11   271   271   271   271   271   271   271            PRN / # OF OBS
   R12   271   271   271   271   271   271   271            PRN / # OF OBS
   R20   271   271   271   271   271   271   271            PRN / # OF OBS
   R21   271   271   271   271   271   271   271            PRN / # OF OBS
   R22   166   166   166   166   166   166   166            PRN / # OF OBS
   G 4   271   271   271   271   271   271   271            PRN / # OF OBS
   G 9   271   271   271   271   271   271   271            PRN / # OF OBS
   G12   271   271   271   271   271   271   271            PRN / # OF OBS
   G14   271   271   271   271   271   271   271            PRN / # OF OBS
   G15   271   271   271   271   271   271   271            PRN / # OF OBS
   G17   271   271   271   271   271   271   271            PRN / # OF OBS
   G25   271   271   271   271   271   271   271            PRN / # OF OBS
   G27   271   271   271   271   271   271   271            PRN / # OF OBS
SE TPS 622ecdb1                                             COMMENT
                                                            END OF HEADER
 11  5 30 15 23 10.0000000  0 15G27G 9R10R11G15R20G17G12R 1R 2R21G 4
                                G25R12G14                           
 108847216.787    84816030.6234   20712936.241 8  20712935.93546  20712940.14246
      2589.019        2017.415  
 103182565.127    80402020.1454   19634989.374 8  19634988.97447  19634992.64247
      3328.774        2593.850  
 111610375.684    86808088.763    20937824.033 7  20937823.446 7  20937830.753 6
       684.481         532.377  
 103087315.052    80179040.354    19291384.363 7  19291384.389 7  19291388.160 6
      4067.917        3163.937  
 120429587.013    93841252.2834   22916992.296 7  22916992.21445  22916996.87345
       -63.795         -49.711  
 107702533.760    83768658.573    20140916.352 7  20140916.062 6  20140920.064 7
      1999.533        1555.193  
 117284507.063    91390546.4504   22318500.269 7  22318500.42645  22318503.50745
      1232.501         960.398  
 110748395.967    86297473.3294   21074715.067 8  21074715.40446  21074718.25446
      5309.350        4137.159  
 125655238.731    97731865.480    23506415.060 6  23506415.248 6  23506421.385 5
      -436.168        -339.232  
 119360672.712    92836098.037    22368137.520 6  22368137.311 6  22368142.706 7
      2280.254        1773.532  
 108570014.715    84443369.784    20288896.195 8  20288895.426 8  20288897.529 7
      6267.288        4874.555  
 126642363.957    98682382.0794   24099237.924 6  24099237.71243  24099245.13543
      6086.748        4742.919  
 126959908.385    98929826.7654   24159661.187 7  24159660.92344  24159668.60644
      6607.986        5149.088  
 119276340.011    92770510.033    22328775.861 7  22328775.661 6  22328781.588 6
      6902.216        5368.393  
 124729745.406    97192030.9154   23735277.912 6  23735277.47743  23735281.72543
      6249.123        4869.458  
 11  5 30 15 23 15.0000000  0 15G27G 9R10R11G15R20G17G12R 1R 2R21G 4
                                G25R12G14                           
 108834276.948    84805947.6334   20710473.952 8  20710473.52046  20710477.77646
      2586.812        2015.692  
 103165929.219    80389057.1004   19631823.515 8  19631823.23647  19631826.90647
      3325.530        2591.317  
 111606957.369    86805430.067    20937183.229 7  20937182.331 7  20937189.229 6
       682.605         530.920  
 103066982.002    80163225.759    19287579.607 7  19287579.348 7  19287583.218 6
      4065.102        3161.749  
 120429909.655    93841503.6784   22917053.659 7  22917053.61845  22917058.33045
       -65.214         -50.821  
 107692547.030    83760891.114    20139048.560 7  20139048.478 6  20139052.524 7
      1995.087        1551.726  
 117278350.586    91385749.1924   22317329.209 7  22317328.92445  22317332.08245
      1229.963         958.417  
 110721854.238    86276791.4674   21069664.805 8  21069664.79846  21069667.48946
      5307.414        4135.654  
 125657423.284    97733564.558    23506824.186 6  23506823.984 6  23506830.341 5
      -437.845        -340.556  
 119349282.040    92827238.619    22366002.349 6  22366001.676 6  22366007.890 7
      2275.936        1770.171  
 108538687.433    84419004.124    20283041.662 8  20283041.187 8  20283043.348 7
      6263.607        4871.695  
 126611933.493    98658670.0424   24093446.912 6  24093446.99443  24093454.53043
      6085.234        4741.755  
 126926870.648    98904083.1004   24153374.745 7  24153374.20044  24153381.53644
      6607.248        5148.509  
 119241829.628    92743668.632    22322315.820 6  22322314.767 6  22322321.565 6
      6901.761        5368.033  
 124698505.334    97167688.0224   23729333.008 6  23729332.00243  23729336.78943
      6246.596        4867.441  
 11  5 30 15 23 20.0000000  0 15G27G 9R10R11G15R20G17G12R 1R 2R21G 4
                                G25R12G14                           
 108821347.636    84795872.8434   20708013.641 8  20708013.16046  20708017.35346
      2584.785        2014.122  
 103149309.070    80376106.3314   19628660.880 8  19628660.55247  19628664.20247
      3322.404        2588.876  
 111603549.302    86802779.341    20936543.112 7  20936542.974 7  20936550.035 6
       680.715         529.447  
 103046662.263    80147421.518    19283777.351 7  19283776.808 7  19283780.615 6
      4062.510        3159.726  
 120430239.289    93841760.5224   22917116.223 7  22917116.32945  22917121.03445
       -66.577         -51.874  
 107682582.654    83753141.040    20137185.457 7  20137185.144 6  20137189.221 7
      1990.474        1548.146  
 117272207.059    91380962.0204   22316160.260 7  22316159.79645  22316163.06445
      1227.469         956.474  
 110695322.607    86256117.4744   21064616.517 8  21064616.12246  21064618.70046
      5305.393        4134.067  
 125659614.628    97735268.916    23507234.205 6  23507233.547 6  23507240.405 5
      -438.700        -341.210  
 119337912.655    92818395.770    22363871.874 6  22363871.541 6  22363877.037 7
      2271.778        1766.921  
 108507378.149    84394652.467    20277190.457 8  20277190.155 8  20277192.222 7
      6260.104        4868.966  
 126581510.823    98634964.0754   24087657.408 6  24087657.59743  24087665.05343
      6083.624        4740.444  
 126893836.631    98878342.3294   24147089.059 7  24147088.16144  24147095.43244
      6606.587        5147.976  
 119207322.061    92716829.440    22315855.060 6  22315854.578 6  22315861.296 6
      6901.213        5367.598  
 124667275.177    97143352.8414   23723389.889 6  23723389.31543  23723393.78743
      6245.091        4866.277  
 11  5 30 15 23 25.0000000  0 15G27G 9R10R11G15R20G17G12R 1R 2R21G 4
                                G25R12G14                           
 108808428.799    84785806.2134   20705555.282 8  20705554.87346  20705559.03046
      2582.705        2012.506  
 103132704.639    80363167.8154   19625501.241 8  19625500.83947  19625504.46747
      3319.400        2586.556  
 111600151.501    86800136.592    20935905.453 7  20935905.562 7  20935912.875 6
       678.482         527.714  
 103026355.933    80131627.704    19279976.911 7  19279976.703 7  19279980.670 6
      4059.872        3157.686  
 120430575.805    93842022.7354   22917180.170 7  22917180.38745  22917185.01545
       -67.956         -52.947  
 107672640.529    83745408.272    20135326.953 7  20135325.806 6  20135330.056 7
      1986.010        1544.673  
 117266076.400    91376184.8814   22314993.179 7  22314993.11445  22314996.46045
      1224.930         954.483  
 110668801.032    86235451.3124   21059569.085 8  21059569.18946  21059571.71246
      5303.433        4132.545  
 125661812.823    97736978.588    23507645.549 6  23507645.211 6  23507651.747 5
      -440.044        -342.252  
 119326564.525    92809569.447    22361745.052 6  22361745.207 6  22361750.644 7
      2267.445        1763.570  
 108476086.838    84370314.788    20271343.176 8  20271342.795 8  20271344.739 7
      6256.484        4866.157  
 126551095.863    98611264.1404   24081870.052 6  24081869.78443  24081876.99143
      6082.093        4739.285  
 126860806.240    98852604.3854   24140802.938 7  24140802.46244  24140809.87444
      6605.817        5147.405  
 119172817.375    92689992.474    22309396.087 7  22309395.674 6  22309402.012 7
      6900.554        5367.100  
 124636054.891    97119025.3454   23717449.298 6  23717448.34043  23717452.80743
      6243.108        4864.773  
 11  5 30 15 23 30.0000000  0 15G27G 9R10R11G15R20G17G12R 1R 2R21G 4
                                G25R12G14                           
 108795520.217    84775747.5774   20703098.879 8  20703098.44946  20703102.60446
      2580.673        2010.911  
 103116115.760    80350241.4134   19622344.328 8  19622344.09547  19622347.70047
      3316.196        2584.048  
 111596763.644    86797501.585    20935270.265 7  20935269.841 7  20935277.321 6
       676.617         526.262  
 103006062.758    80115844.123    19276179.116 7  19276179.072 7  19276182.713 6
      4057.372        3155.741  
 120430919.032    93842290.1724   22917245.495 7  22917245.61545  22917250.15145
       -69.238         -53.953  
 107662720.399    83737692.617    20133471.354 7  20133470.661 6  20133474.957 7
      1981.906        1541.483  
 117259958.441    91371417.6324   22313828.936 7  22313828.89545  22313832.13645
      1222.362         952.494  
 110642289.369    86214792.8764   21054523.947 8  21054524.16146  21054526.66746
      5301.315        4130.889  
 125664017.411    97738693.252    23508058.105 6  23508057.735 6  23508064.208 5
      -441.522        -343.392  
 119315237.564    92800759.594    22359623.227 6  22359622.425 6  22359628.030 7
      2263.435        1760.452  
 108444813.234    84345990.880    20265499.477 8  20265498.730 8  20265500.575 7
      6252.856        4863.332  
 126520688.392    98587570.0184   24076083.547 6  24076083.36643  24076090.66743
      6080.647        4738.153  
 126827779.343    98826869.1554   24134518.011 7  24134517.31744  24134524.97944
      6605.042        5146.806  
 119138315.307    92663157.543    22302938.572 7  22302937.333 6  22302943.221 6
      6900.260        5366.874  
 124604844.318    97094705.4324   23711510.471 6  23711509.26143  23711513.46843
      6241.118        4863.211  
 11  5 30 15 23 35.0000000  0 15G27G 9R10R11G15R20G17G12R 1R 2R21G 4
                                G25R12G14                           
 108782621.811    84765696.8714   20700644.318 8  20700643.94046  20700648.19746
      2578.583        2009.292  
 103099542.322    80337327.0454   19619190.845 8  19619190.24747  19619193.87047
      3313.012        2581.570  
 111593385.669    86794874.264    20934636.734 7  20934636.294 7  20934643.428 6
       674.496         524.612  
 102985782.667    80100070.720    19272384.272 7  19272383.985 7  19272387.543 6
      4054.708        3153.659  
 120431268.845    93842562.7464   22917312.388 7  22917312.11045  22917316.68145
       -70.718         -55.103  
 107652822.273    83729994.075    20131619.933 6  20131619.649 6  20131624.011 7
      1977.385        1537.969  
 117253853.023    91366660.1634   22312667.152 7  22312666.95845  22312670.40145
      1219.976         950.635  
 110615787.432    86194142.0244   21049480.966 8  21049480.91746  21049483.51846
      5299.293        4129.318  
 125666228.471    97740412.939    23508471.328 6  23508471.723 6  23508478.046 5
      -443.217        -344.706  
 119303931.677    92791966.126    22357504.778 7  22357504.272 6  22357509.702 7
      2259.084        1757.064  
 108413557.304    84321680.719    20259658.137 8  20259657.653 8  20259659.705 7
      6249.411        4860.649  
 126490288.373    98563881.7094   24070298.811 6  24070298.73943  24070305.07343
      6079.055        4736.902  
 126794755.832    98801136.5744   24128233.472 7  24128233.12544  24128241.27344
      6604.313        5146.187  
 119103815.803    92636324.601    22296479.831 7  22296478.893 6  22296485.003 6
      6899.372        5366.173  
 124573643.392    97070393.0164   23705573.275 6  23705572.12843  23705576.06643
      6238.958        4861.535  
 11  5 30 15 23 40.0000000  0 15G27G 9R10R11G15R20G17G12R 1R 2R21G 4
                                G25R12G14                           
 108769733.820    84755654.2804   20698191.828 8  20698191.42546  20698195.60046
      2576.465        2007.636  
 103082984.549    80324424.8864   19616039.708 8  19616039.41347  19616042.95247
      3309.851        2579.102  
 111590017.775    86792254.788    20934004.480 7  20934004.080 7  20934011.702 6
       672.522         523.073  
 102965515.854    80084307.641    19268591.856 7  19268591.371 7  19268594.902 6
      4051.973        3151.535  
 120431625.442    93842840.6004   22917380.281 7  22917380.03345  22917384.52645
       -71.893         -56.025  
 107642946.355    83722312.804    20129772.482 7  20129772.728 6  20129777.120 7
      1972.994        1534.558  
 117247760.448    91361912.6954   22311507.736 7  22311507.59845  22311510.95045
      1217.255         948.515  
 110589295.461    86173498.9294   21044439.929 8  21044439.68946  21044442.16546
      5297.438        4127.873  
 125668446.015    97742137.681    23508887.800 6  23508886.836 6  23508892.581 5
      -444.221        -345.506  
 119292646.924    92783189.095    22355390.820 7  22355389.864 6  22355394.677 7
      2254.813        1753.740  
 108382319.231    84297384.451    20253820.377 8  20253820.071 8  20253822.043 7
      6245.782        4857.825  
 126459896.055    98540199.3874   24064515.252 6  24064514.84843  24064521.54243
      6077.530        4735.745  
 126761735.905    98775406.7764   24121950.227 7  24121949.58744  24121957.78344
      6603.661        5145.718  
 119069319.071    92609493.824    22290020.813 7  22290021.045 6  22290027.161 7
      6898.870        5365.791  
 124542452.303    97046088.2774   23699637.240 6  23699636.52343  23699640.66443
      6237.062        4860.068  
 11  5 30 15 23 45.0000000  0 15G27G 9R10R11G15R20G17G12R 1R 2R21G 4
                                G25R12G14                           
 108756856.193    84745619.7614   20695741.257 8  20695740.90946  20695745.09246
      2574.525        2006.121  
 103066442.429    80311534.9224   19612892.060 8  19612891.54447  19612895.13247
      3306.762        2576.700  
 111586659.941    86789643.127    20933374.552 7  20933374.457 7  20933381.927 6
       670.367         521.395  
 102945262.288    80068554.868    19264801.551 7  19264801.199 7  19264804.626 6
      4049.344        3149.486  
 120431988.799    93843123.7224   22917449.575 7  22917449.15345  22917453.93545
       -73.471         -57.255  
 107633092.594    83714648.767    20127930.995 7  20127930.128 6  20127934.380 7
      1968.476        1531.039  
 117241680.617    91357175.1604   22310350.565 7  22310350.78745  22310353.98945
      1214.782         946.574  
 110562813.462    86152863.6094   21039400.328 8  21039400.34846  21039402.81946
      5295.424        4126.294  
 125670670.288    97743867.661    23509303.766 6  23509303.424 6  23509308.188 5
      -445.641        -346.634  
 119281383.364    92774428.543    22353279.477 7  22353279.192 6  22353283.917 7
      2250.457        1750.352  
 108351099.047    84273102.089    20247986.903 8  20247985.909 8  20247987.759 7
      6242.228        4855.062  
 126429511.413    98516523.0604   24058733.660 6  24058733.47843  24058739.58343
      6076.191        4734.678  
 126728719.613    98749679.8094   24115667.131 7  24115666.89744  24115675.25544
      6602.772        5144.983  
 119034825.159    92582665.226    22283563.751 7  22283563.537 6  22283569.726 6
      6898.713        5365.658  
 124511271.043    97021791.1954   23693703.531 6  23693703.00143  23693707.26443
      6235.583        4858.873  
 11  5 30 15 23 50.0000000  0 15G27G 9R10R11G15R20G17G12R 1R 2R21G 4
                                G25R12G14                           
 108743988.763    84735593.1944   20693292.912 8  20693292.33246  20693296.48146
      2572.427        2004.490  
 103049915.762    80298656.9944   19609747.147 9  19609746.65447  19609750.19047
      3303.778        2574.374  
 111583311.923    86787039.109    20932746.650 7  20932746.526 7  20932753.836 6
       668.488         519.924  
 102925021.741    80052812.220    19261013.988 7  19261013.559 7  19261017.065 6
      4046.844        3147.547  
 120432358.673    93843411.9274   22917519.758 7  22917519.48345  22917524.36045
       -74.530         -58.065  
 107623260.726    83707001.758    20126091.484 7  20126091.479 6  20126095.649 7
      1964.173        1527.686  
 117235613.350    91352447.4144   22309196.073 7  22309196.26945  22309199.41145
      1212.265         944.629  
 110536341.246    86132235.9104   21034362.891 8  21034362.83746  21034365.41146
      5293.487        4124.802  
 125672900.809    97745602.505    23509720.732 6  23509720.351 6  23509725.585 5
      -446.722        -347.447  
 119270140.848    92765684.359    22351173.034 7  22351172.475 6  22351177.102 7
      2246.349        1747.160  
 108319896.492    84248833.441    20242155.532 8  20242154.774 8  20242156.662 7
      6238.811        4852.414  
 126399134.163    98492852.5114   24052952.344 6  24052952.75343  24052958.96843
      6074.829        4733.627  
 126695706.678    98723955.4704   24109385.748 7  24109384.74144  24109392.94244
      6602.182        5144.567  
 119000333.823    92555838.638    22277106.619 7  22277106.017 6  22277112.328 6
      6898.152        5365.234  
 124480099.467    96997501.6634   23687771.807 6  23687771.23943  23687775.20943
      6233.464        4857.250  
 11  5 30 15 23 55.0000000  0 15G27G 9R10R11G15R20G17G12R 1R 2R21G 4
                                G25R12G14                           
 108731132.091    84725575.0084   20690846.287 8  20690845.77246  20690849.93946
      2570.150        2002.716  
 103033405.137    80285791.5734   19606605.157 8  19606604.76847  19606608.32947
      3300.379        2571.722  
 111579974.408    86784443.247    20932120.300 7  20932119.981 7  20932127.580 6
       666.569         518.449  
 102904794.956    80037080.277    19257228.560 7  19257228.380 7  19257231.900 6
      4043.809        3145.190  
 120432735.714    93843705.7104   22917590.935 7  22917591.05145  22917596.15545
       -76.163         -59.335  
 107613451.406    83699372.278    20124256.898 7  20124257.285 6  20124261.373 7
      1959.555        1524.102  
 117229559.252    91347729.9284   22308044.349 7  22308044.12545  22308047.39945
      1209.537         942.517  
 110509879.385    86111616.2804   21029327.429 8  21029327.25046  21029329.89646
      5291.297        4123.086  
 125675138.293    97747342.756    23510140.242 6  23510138.710 6  23510143.975 5
      -448.449        -348.775  
 119258919.832    92756956.885    22349069.227 7  22349069.250 6  22349074.289 7
      2241.980        1743.776  
 108288712.347    84224579.113    20236327.862 8  20236327.174 8  20236329.230 7
      6234.994        4849.437  
 126368765.072    98469188.2784   24047173.008 6  24047173.57543  24047179.95143
      6072.990        4732.177  
 126662697.746    98698234.2584   24103103.707 7  24103103.46144  24103111.55044
      6601.303        5143.873  
 118965845.670    92529014.523    22270649.847 6  22270649.461 6  22270655.518 6
      6897.270        5364.546  
 124448938.157    96973220.1164   23681841.767 6  23681841.60743  23681845.38943
      6231.345        4855.588  
 11  5 30 15 24  0.0000000  0 15G27G 9R10R11G15R20G17G12R 1R 2R21G 4
                                G25R12G14                           
 108718286.099    84715565.1414   20688401.684 8  20688401.32646  20688405.40446
      2568.145        2001.160  
 103016910.480    80272938.5934   19603466.250 8  19603465.96547  19603469.49147
      3297.227        2569.271  
 111576647.253    86781855.460    20931496.416 7  20931496.239 7  20931503.154 6
       664.422         516.776  
 102884581.767    80021358.908    19253446.296 7  19253445.623 7  19253449.324 6
      4041.321        3143.248  
 120433119.787    93844004.9774   22917664.433 7  22917664.38745  22917669.11145
       -77.442         -60.338  
 107603664.404    83691760.163    20122427.400 7  20122427.140 6  20122431.142 7
      1955.245        1520.743  
 117223518.183    91343022.6054   22306894.403 7  22306894.51545  22306897.75445
      1207.008         940.537  
 110483427.828    86091004.6804   21024293.701 8  21024293.77546  21024296.37346
      5289.381        4121.603  
 125677382.580    97749088.300    23510559.841 6  23510558.567 6  23510564.130 5
      -449.569        -349.664  
 119247720.252    92748246.092    22346970.445 6  22346969.960 6  22346975.557 7
      2237.844        1740.551  
 108257546.468    84200338.992    20230504.108 8  20230503.124 8  20230505.057 7
      6231.284        4846.545  
 126338404.047    98445530.3674   24041395.951 6  24041395.76743  24041402.52743
      6071.497        4731.035  
 126629692.710    98672516.0664   24096823.372 7  24096822.92144  24096831.03744
      6600.554        5143.298  
 118931360.651    92502192.852    22264195.180 6  22264194.391 6  22264199.992 6
      6896.685        5364.089  
 124417787.011    96948946.5044   23675913.690 6  23675913.39343  23675917.74043
      6229.315        4854.017  
 11  5 30 15 24  5.0000000  0 15G27G 9R10R11G15R20G17G12R 1R 2R21G 4
                                G25R12G14                           
 108705450.913    84705563.6994   20685959.411 8  20685958.84546  20685963.02046
      2565.982        1999.465  
 103000431.899    80260098.1414   19600330.456 8  19600330.19647  19600333.71747
      3294.164        2566.874  
 111573330.669    86779275.888    20930874.632 7  20930874.363 7  20930881.476 6
       662.315         515.153  
 102864382.335    80005648.238    19249665.539 7  19249665.574 7  19249669.476 6
      4038.643        3141.154  
 120433510.999    93844309.8074   22917739.046 7  22917739.01545  22917743.60045
       -78.919         -61.497  
 107593899.920    83684165.567    20120601.208 7  20120601.157 6  20120604.963 7
      1950.607        1517.130  
 117217490.264    91338325.5174   22305747.350 7  22305747.55445  22305750.77245
      1204.290         938.413  
 110456986.677    86070401.1904   21019262.051 8  21019262.07746  21019264.79446
      5287.234        4119.905  
 125679633.815    97750839.238    23510980.079 6  23510979.380 6  23510985.720 5
      -450.749        -350.561  
 119236542.349    92739552.152    22344875.805 6  22344874.943 6  22344880.463 7
      2233.541        1737.204  
 108226398.973    84176113.172    20224683.512 8  20224682.657 8  20224684.375 7
      6227.639        4843.719  
 126308051.170    98421878.7934   24035620.402 6  24035620.03643  24035626.89443
      6069.787        4729.704  
 126596691.724    98646801.0354   24090543.960 7  24090543.09544  24090551.05844
      6599.733        5142.643  
 118896878.919    92475373.721    22257739.885 7  22257739.548 6  22257745.505 6
      6896.107        5363.633  
 124386646.177    96924680.9264   23669988.210 6  23669987.67743  23669992.21243
      6227.146        4852.306  
 11  5 30 15 24 10.0000000  0 15G27G 9R10R11G15R20G17G12R 1R 2R21G 4
                                G25R12G14                           
 108692626.059    84695570.3034   20683518.818 8  20683518.34546  20683522.51346
      2563.960        1997.904  
 102983968.945    80247269.8644   19597197.888 8  19597197.39847  19597200.97346
      3291.072        2564.482  
 111570024.100    86776704.115    20930253.912 7  20930253.713 7  20930261.384 6
       660.258         513.540  
 102844196.138    79989947.864    19245888.065 7  19245887.931 7  19245891.753 6
      4035.942        3139.064  
 120433908.888    93844619.8384   22917814.444 7  22917814.65345  22917819.21145
       -80.246         -62.520  
 107584157.476    83676588.114    20118779.480 7  20118779.198 6  20118783.126 7
      1946.272        1513.774  
 117211474.954    91333638.2594   22304603.195 7  22304603.04545  22304606.16945
      1201.904         936.555  
 110430555.443    86049805.4254   21014232.616 8  21014232.28546  21014235.11146
      5285.376        4118.481  
 125681891.512    97752595.204    23511401.459 6  23511401.668 6  23511408.237 5
      -452.094        -351.624  
 119225385.548    92730874.634    22342785.443 6  22342784.672 6  22342789.645 7
      2229.239        1733.844  
 108195269.431    84151901.314    20218865.705 8  20218865.508 8  20218867.087 7
      6224.184        4841.043  
 126277705.868    98398233.1264   24029845.899 6  24029845.38043  24029852.21543
      6068.467        4728.658  
 126563694.294    98621088.7764   24084264.464 7  24084263.70944  24084271.91444
      6599.332        5142.349  
 118862399.934    92448556.742    22251284.998 7  22251284.786 6  22251291.187 6
      6895.441        5363.121  
 124355515.199    96900423.0224   23664064.258 6  23664063.60343  23664068.48443
      6225.105        4850.736  
 11  5 30 15 24 15.0000000  0 15G27G 9R10R11G15R20G17G12R 1R 2R21G 4
                                G25R12G14                           
 108679811.436    84685584.8814   20681079.980 8  20681079.78846  20681083.96446
      2561.799        1996.206  
 102967521.490    80234453.6664   19594067.802 8  19594067.51847  19594071.13247
      3287.899        2562.000  
 111566727.488    86774140.071    20929636.425 7  20929635.648 7  20929642.542 6
       658.274         511.993  
 102824023.155    79974257.762    19242113.434 7  19242112.837 7  19242116.749 6
      4033.286        3136.996  
 120434313.308    93844934.9594   22917891.162 7  22917891.44545  22917896.28345
       -81.570         -63.566  
 107574436.907    83669027.666    20116961.090 7  20116961.154 6  20116965.379 7
      1941.925        1510.390  
 117205472.216    91328960.8014   22303461.368 7  22303460.67645  22303463.87245
      1199.222         934.458  
 110404134.089    86029217.3594   21009204.536 8  21009204.61046  21009207.19946
      5283.238        4116.813  
 125684155.457    97754356.022    23511825.227 6  23511825.131 6  23511832.273 5
      -453.366        -352.612  
 119214249.665    92722213.410    22340699.094 7  22340698.560 6  22340703.108 7
      2224.999        1730.543  
 108164157.728    84127703.331    20213052.045 8  20213051.507 8  20213053.094 7
      6220.503        4838.166  
 126247368.226    98374593.4264   24024072.176 6  24024072.30443  24024078.87643
      6066.460        4727.089  
 126530700.312    98595379.2144   24077985.731 6  24077985.04944  24077993.15744
      6598.611        5141.749  
 118827923.624    92421741.844    22244831.300 7  22244830.867 6  22244837.254 6
      6895.075        5362.830  
 124324393.969    96876172.7294   23658142.050 6  23658141.33743  23658146.46043
      6223.297        4849.315  
 11  5 30 15 24 20.0000000  0 15G27G 9R10R11G15R20G17G12R 1R 2R21G 4
                                G25R12G14                           
 110242429.984    85903209.7224   20978436.482 8  20978436.22646  20978440.39346
      2559.616        1994.510  
 104526513.171    81449252.3764   19890734.269 8  19890733.81447  19890737.33547
      3284.664        2559.479  
 113161504.280    88014522.012    21228812.293 7  21228811.588 7  21228818.558 6
       656.105         510.297  
 104405867.726    81204581.319    19538133.294 7  19538133.278 7  19538137.481 6
      4030.459        3134.811  
 122010144.560    95072855.4004   23217761.954 7  23217762.10045  23217767.07045
       -83.023         -64.701  
 109167865.650    84908361.129    20414941.414 7  20414940.443 6  20414944.599 7
      1937.313        1506.803  
 118774903.583    92551894.3254   22602113.755 7  22602113.58745  22602116.71645
      1196.577         932.402  
 111953148.295    87236241.4174   21303972.224 8  21303972.15546  21303974.83146
      5281.039        4115.105  
 127288988.126    99002559.186    23812043.250 6  23812042.302 6  23812049.187 5
      -454.808        -353.710  
 120802887.316    93957820.471    22638407.857 6  22638407.967 6  22638413.212 7
      2220.741        1727.240  
 109737320.416    85351274.315    20507034.843 8  20507034.518 8  20507036.186 7
      6216.876        4835.346  
 127792464.699    99578564.7124   24318094.500 6  24318094.48043  24318101.26843
      6065.107        4726.067  
 128073136.768    99797277.7774   24371501.254 6  24371500.89744  24371508.81944
      6597.656        5141.028  
 120394894.770    93640497.188    22538171.489 6  22538171.174 6  22538177.652 6
      6894.342        5362.264  
 125868709.086    98079535.1674   23952015.037 6  23952014.74743  23952019.67543
      6221.383        4847.846  
 11  5 30 15 24 25.0000000  0 15G27G 9R10R11G15R20G17G12R 1R 2R21G 4
                                G25R12G14                           
 110229637.117    85893241.2504   20976002.431 8  20976001.85546  20976005.97546
      2557.462        1992.837  
 104510097.995    81436461.3314   19887610.610 8  19887610.09547  19887613.66746
      3281.509        2557.018  
 113158228.676    88011974.313    21228197.495 7  21228197.087 7  21228204.174 6
       654.088         508.740  
 104385722.344    81188912.691    19534363.335 7  19534363.478 7  19534367.561 6
      4027.672        3132.626  
 122010563.296    95073181.6734   23217841.668 7  23217841.89545  23217846.76145
       -84.424         -65.778  
 109158190.173    84900835.757    20413130.939 6  20413131.065 6  20413135.307 7
      1933.028        1503.473  
 118768927.141    92547237.3594   22600976.682 7  22600976.34845  22600979.57045
      1194.024         930.394  
 111926747.917    87215669.6974   21298948.557 8  21298948.36146  21298950.95146
      5279.064        4113.554  
 127291265.855    99004330.744    23812469.637 6  23812468.168 6  23812475.145 5
      -456.258        -354.860  
 120791794.719    93949192.898    22636329.502 6  22636328.992 6  22636333.817 6
      2216.188        1723.690  
 109706245.592    85327105.011    20501227.631 8  20501227.318 8  20501228.991 7
      6213.225        4832.504  
 127762143.627    99554937.9234   24312325.285 6  24312324.76443  24312331.15643
      6063.433        4724.785  
 128040150.984    99771574.5884   24365224.151 6  24365223.67644  24365231.62944
      6596.932        5140.462  
 120360425.120    93613687.475    22531719.044 7  22531718.234 6  22531724.589 6
      6893.597        5361.667  
 125837608.725    98055301.1324   23946096.292 6  23946096.29643  23946101.56943
      6219.137        4846.088  
 11  5 30 15 24 30.0000000  0 15G27G 9R10R11G15R20G17G12R 1R 2R21G 4
                                G25R12G14                           
 110216855.066    85883281.2124   20973569.797 8  20973569.48446  20973573.58146
      2555.443        1991.259  
 104493698.915    81423682.8264   19884489.806 8  19884489.44847  19884493.01447
      3278.210        2554.445  
 113154963.669    88009434.852    21227585.212 7  21227584.674 7  21227591.722 6
       652.054         507.163  
 104365590.722    81173254.761    19530596.299 7  19530596.171 7  19530600.109 6
      4025.164        3130.685  
 122010989.069    95073513.4394   23217923.161 7  23217923.11245  23217927.84445
       -85.757         -66.830  
 109148537.294    84893327.959    20411326.278 6  20411325.880 6  20411330.058 7
      1928.345        1499.824  
 118762963.815    92542590.6044   22599841.906 7  22599841.62245  22599844.64145
      1191.481         928.420  
 111900357.931    87195106.0744   21293926.695 8  21293926.28446  21293929.20046
      5277.130        4112.050  
 127293550.473    99006107.648    23812896.225 6  23812895.959 6  23812902.168 5
      -457.506        -355.827  
 120780723.607    93940582.042    22634255.757 6  22634254.414 6  22634258.711 7
      2212.086        1720.515  
 109675189.237    85302950.078    20495424.327 8  20495423.593 8  20495425.345 7
      6209.511        4829.623  
 127731830.797    99531317.5754   24306556.567 6  24306556.65843  24306562.66243
      6061.845        4723.520  
 128007169.276    99745874.5814   24358948.383 7  24358947.46644  24358955.72244
      6595.981        5139.740  
 120325958.742    93586880.295    22525267.298 7  22525266.460 6  22525272.207 6
      6892.935        5361.169  
 125806518.668    98031075.1264   23940180.237 6  23940179.94943  23940185.14843
      6217.120        4844.517  
 11  5 30 15 24 35.0000000  0 15G27G 9R10R11G15R20G17G12R 1R 2R21G 4
                                G25R12G14                           
 110204083.621    85873329.4324   20971139.414 8  20971139.19746  20971143.30346
      2553.181        1989.493  
 104477315.727    81410916.7054   19881372.014 8  19881371.85846  19881375.36146
      3274.993        2551.942  
 113151708.799    88006903.277    21226975.108 7  21226974.036 7  21226981.177 6
       649.915         505.491  
 104345472.733    81157607.435    19526831.788 7  19526831.419 7  19526835.219 6
      4022.160        3128.331  
 122011421.688    95073850.5364   23218005.413 7  23218005.38845  23218010.32145
       -87.156         -67.910  
 109138906.748    84885837.535    20409524.662 6  20409524.964 6  20409529.162 7
      1923.917        1496.376  
 118757013.375    92537953.9014   22598709.498 7  22598709.19145  22598712.40245
      1188.722         926.273  
 111873978.180    87174550.4304   21288906.643 8  21288906.53546  21288909.26046
      5274.861        4110.292  
 127295841.637    99007889.653    23813325.722 6  23813324.860 6  23813330.915 5
      -458.942        -356.943  
 120769673.789    93931987.725    22632183.634 6  22632183.189 6  22632188.582 7
      2207.883        1717.239  
 109644151.236    85278809.414    20489624.008 8  20489623.587 8  20489625.392 7
      6205.667        4826.625  
 127701525.957    99507703.4324   24300789.221 6  24300789.41543  24300796.07243
      6060.085        4722.113  
 127974191.413    99720177.5604   24352673.040 7  24352672.21144  24352679.84844
      6595.163        5139.085  
 120291495.477    93560075.531    22518815.388 7  22518815.077 7  22518820.390 6
      6892.348        5360.707  
 125775438.877    98006857.1254   23934266.239 6  23934266.18843  23934270.48543
      6215.093        4842.942  
 11  5 30 15 24 40.0000000  0 14G27G 9R10R11G15R20G17G12R 2R21G 4G25
                                R12G14                              
 110191323.472    85863386.4564   20968711.257 8  20968711.02546  20968715.14046
      2550.848        1987.682  
 104460949.126    81398163.5084   19878257.886 8  19878257.32447  19878260.94047
      3271.701        2549.384  
 113148464.940    88004380.267    21226365.727 7  21226365.455 7  21226372.539 6
       647.872         503.910  
 104325368.870    81141971.098    19523069.173 7  19523069.405 7  19523073.152 6
      4019.427        3126.221  
 122011861.840    95074193.4984   23218089.226 7  23218089.27045  23218093.93845
       -88.885         -69.269  
 109129299.128    84878364.937    20407729.381 7  20407728.290 6  20407732.502 7
      1919.263        1492.756  
 118751076.473    92533327.7244   22597579.161 7  22597579.40445  22597582.73945
      1186.040         924.180  
 111847609.302    87154003.2604   21283888.888 8  21283888.69046  21283891.30946
      5272.793        4108.663  
 120758646.039    93923410.577    22630118.096 6  22630117.224 6  22630122.374 7
      2203.292        1713.665  
 109613132.130    85254683.451    20483827.997 8  20483827.094 8  20483828.728 7
      6201.995        4823.777  
 127671229.911    99484096.1454   24295024.369 6  24295024.18143  24295031.02843
      6058.418        4720.841  
 127941218.065    99694484.0584   24346398.379 7  24346397.82344  24346405.28744
      6594.187        5138.337  
 120257035.960    93533273.689    22512364.095 7  22512363.978 7  22512369.550 6
      6891.640        5360.161  
 125744369.925    97982647.5554   23928353.729 6  23928353.80643  23928358.74243
      6212.730        4841.095  
 11  5 30 15 24 45.0000000  0 14G27G 9R10R11G15R20G17G12R 2R21G 4G25
                                R12G14                              
 110178574.057    85853451.8474   20966285.360 8  20966284.82346  20966289.02746
      2548.799        1986.076  
 104444598.517    81385422.7714   19875146.342 8  19875145.89947  19875149.48347
      3268.439        2546.831  
 113145231.460    88001865.347    21225759.516 7  21225759.081 7  21225765.972 6
       645.565         502.104  
 104305278.801    81126345.490    19519309.903 7  19519309.866 7  19519313.442 6
      4016.645        3124.050  
 122012308.935    95074541.8724   23218174.476 7  23218174.45445  23218179.03945
       -90.085         -70.197  
 109119713.835    84870909.710    20405936.907 7  20405935.937 6  20405939.869 7
      1914.713        1489.220  
 118745152.579    92528711.7104   22596452.011 7  22596452.07645  22596455.43345
      1183.335         922.095  
 111821250.787    87133464.1604   21278873.048 8  21278872.80346  21278875.41246
      5270.680        4107.026  
 120747639.673    93914850.053    22628055.236 6  22628054.152 6  22628059.559 7
      2199.232        1710.509  
 109582131.504    85230571.860    20478034.578 8  20478033.719 8  20478035.421 7
      6198.167        4820.787  
 127640941.973    99460495.1834   24289260.937 6  24289261.12243  24289267.23243
      6056.730        4719.530  
 127908248.736    99668793.6864   24340124.435 7  24340123.98944  24340131.22344
      6593.483        5137.776  
 120222579.718    93506474.389    22505913.526 7  22505913.375 6  22505919.794 6
      6890.692        5359.421  
 125713311.319    97958446.0544   23922443.794 6  23922443.52743  23922448.44143
      6210.750        4839.548  
 11  5 30 15 24 50.0000000  0 14G27G 9R10R11G15R20G17G12R 2R21G 4G25
                                R12G14                              
 110165835.428    85843525.6414   20963861.269 8  20963860.79746  20963864.93046
      2546.624        1984.377  
 104428263.988    81372694.5694   19872037.956 8  19872037.57447  19872041.13547
      3265.330        2544.410  
 113142008.386    87999358.492    21225154.184 7  21225154.303 7  21225161.517 6
       643.668         500.643  
 104285202.536    81110730.619    19515553.445 7  19515552.831 7  19515556.598 6
      4013.831        3121.856  
 122012763.030    95074895.7064   23218260.750 7  23218260.81545  23218265.19745
       -91.588         -71.361  
 109110150.836    84863471.820    20404147.769 7  20404147.554 6  20404151.594 7
      1910.196        1485.701  
 118739241.732    92524105.8514   22595327.331 7  22595327.24445  22595330.70945
      1180.745         920.050  
 111794902.650    87112933.1484   21273858.812 7  21273858.81946  21273861.55346
      5268.640        4105.428  
 120736654.816    93906306.264    22625997.370 7  22625996.014 6  22626000.628 7
      2194.847        1707.108  
 109551149.303    85206474.600    20472244.665 8  20472243.919 8  20472245.672 7
      6194.536        4817.968  
 127610662.386    99436900.7134   24283499.180 6  24283499.06343  24283505.29143
      6054.869        4718.087  
 127875283.421    99643106.4414   24333851.389 7  24333850.99444  24333857.95944
      6592.702        5137.153  
 120188126.647    93479677.571    22499463.819 6  22499463.268 6  22499470.376 6
      6890.159        5359.007  
 125682263.104    97934252.6524   23916535.396 6  23916535.53043  23916540.10043
      6208.542        4837.815  
 11  5 30 15 24 55.0000000  0 14G27G 9R10R11G15R20G17G12R 2R21G 4G25
                                R12G14                              
 110153107.913    85833608.0924   20961439.301 8  20961438.85246  20961442.91946
      2544.363        1982.625  
 104411945.863    81359979.1464   19868932.801 8  19868932.28447  19868935.87647
      3261.959        2541.785  
 113138796.006    87996859.963    21224551.700 7  21224551.655 7  21224558.610 6
       641.471         498.919  
 104265140.285    81095126.645    19511797.915 7  19511798.263 7  19511802.153 6
      4011.078        3119.722  
 122013224.436    95075255.2274   23218348.443 7  23218348.49045  23218353.09745
       -93.006         -72.468  
 109100610.557    84856051.601    20402364.288 7  20402363.359 6  20402367.549 7
      1906.025        1482.468  
 118733344.185    92519510.3494   22594205.210 7  22594205.15645  22594208.38845
      1178.150         918.038  
 111768565.234    87092410.4864   21268847.017 8  21268846.93046  21268849.69846
      5266.438        4103.719  
 120725691.665    93897779.372    22623942.829 7  22623942.081 6  22623946.289 7
      2190.353        1703.600  
 109520185.984    85182392.023    20466458.273 8  20466457.837 8  20466459.390 7
      6190.664        4814.959  
 127580391.289    99413312.8624   24277737.770 6  24277738.33443  24277745.36343
      6053.511        4717.028  
 127842322.434    99617422.5874   24327579.260 7  24327578.61844  24327585.79944
      6591.833        5136.486  
 120153677.213    93452883.583    22493014.748 7  22493014.230 6  22493021.260 6
      6889.468        5358.479  
 125651225.588    97910067.5814   23910629.600 6  23910629.33243  23910633.81143
      6206.454        4836.193  
 11  5 30 15 25  0.0000000  0 14G27G 9R10R11G15R20G17G12R 2R21G 4G25
                                R12G14                              
 110140390.884    85823698.7194   20959019.519 8  20959018.87446  20959022.93146
      2542.406        1981.095  
 104395643.538    81347276.0364   19865830.598 8  19865830.12847  19865833.66646
      3258.867        2539.373  
 113135593.729    87994369.299    21223951.202 7  21223950.562 7  21223957.957 6
       639.564         497.442  
 104245091.566    81079533.198    19508046.383 7  19508046.287 7  19508050.321 6
      4008.357        3117.616  
 122013692.540    95075619.9704   23218437.242 7  23218437.26545  23218442.25045
       -94.315         -73.486  
 109091092.522    84848648.685    20400583.398 7  20400583.449 6  20400587.546 7
      1901.167        1478.681  
 118727459.390    92514924.7884   22593085.721 7  22593085.45345  22593088.53445
      1175.620         916.066  
 111742237.935    87071895.7124   21263837.177 8  21263836.96346  21263839.69146
      5264.416        4102.130  
 120714749.627    93889268.905    22621892.598 7  22621891.796 7  22621895.915 7
      2186.203        1700.374  
 109489240.925    85158323.651    20460675.124 8  20460674.875 8  20460676.480 7
      6187.170        4812.233  
 127550128.271    99389731.3254   24271979.752 6  24271979.33643  24271986.61243
      6051.570        4715.507  
 127809365.224    99591741.6744   24321307.780 7  24321306.94844  24321314.56244
      6591.189        5135.999  
 120119230.818    93426091.954    22486566.111 6  22486565.752 6  22486572.252 6
      6889.007        5358.102  
 125620198.240    97885890.4454   23904725.183 6  23904724.59743  23904729.42743
      6204.351        4834.548  
 11  5 30 15 25  5.0000000  0 14G27G 9R10R11G15R20G17G12R 2R21G 4G25
                                R12G14                              
 110127684.765    85813797.8454   20956601.616 8  20956600.96946  20956605.02046
      2540.059        1979.266  
 104379357.423    81334585.5534   19862731.266 8  19862730.95347  19862734.52847
      3255.556        2536.794  
 113132401.971    87991886.810    21223352.259 7  21223351.858 7  21223359.014 6
       637.339         495.705  
 104225056.725    81063950.542    19504296.744 7  19504297.076 7  19504300.972 6
      4005.494        3115.388  
 122014167.705    95075990.2204   23218527.861 7  23218527.79845  23218532.84445
       -95.755         -74.600  
 109081596.945    84841263.234    20398808.161 7  20398807.580 6  20398811.855 7
      1896.776        1475.271  
 118721587.713    92510349.4574   22591968.405 7  22591968.12945  22591971.14245
      1172.987         914.011  
 111715921.165    87051389.1414   21258829.301 8  21258829.04446  21258831.79846
      5262.157        4100.381  
 120703829.234    93880775.271    22619845.723 7  22619845.251 6  22619849.537 7
      2181.785        1696.941  
 109458314.447    85134269.728    20454895.895 8  20454895.492 8  20454897.062 7
      6183.268        4809.212  
 127519873.626    99366156.3044   24266222.372 6  24266222.15843  24266229.08343
      6049.979        4714.247  
 127776412.203    99566064.0124   24315036.768 7  24315036.14544  24315043.92044
      6590.083        5135.128  
 120084787.837    93399302.973    22480119.416 7  22480118.334 6  22480124.531 6
      6888.166        5357.458  
 125589181.430    97861721.5104   23898823.167 6  23898822.52243  23898826.89443
      6201.916        4832.646  
 11  5 30 15 25 10.0000000  0 14G27G 9R10R11G15R20G17G12R 2R21G 4G25
                                R12G14                              
 110114990.241    85803906.0084   20954185.546 8  20954185.31346  20954189.37346
      2537.742        1977.460  
 104363088.192    81321908.2304   19859635.518 8  19859635.08847  19859638.58447
      3252.184        2534.166  
 113129221.474    87989413.084    21222755.961 7  21222755.340 7  21222762.581 6
       634.908         493.820  
 104205036.434    81048379.202    19500550.876 7  19500550.569 7  19500554.506 6
      4002.672        3113.194  
 122014650.621    95076366.5054   23218619.890 7  23218619.86245  23218624.92245
       -97.245         -75.774  
 109072124.325    84833895.644    20397037.653 7  20397036.243 6  20397040.408 7
      1892.328        1471.810  
 118715729.751    92505784.8134   22590853.808 8  22590853.29445  22590856.38745
      1170.261         911.890  
 111689615.575    87030891.2824   21253823.657 8  21253823.23446  21253826.06046
      5260.053        4098.743  
 120692931.122    93872298.969    22617803.014 6  22617802.519 6  22617807.329 7
      2177.348        1693.496  
 109427407.225    85110230.782    20449119.984 8  20449119.597 8  20449121.362 7
      6179.519        4806.282  
 127489628.120    99342588.3844   24260466.264 6  24260466.79743  24260472.90043
      6048.066        4712.774  
 127743464.028    99540390.1334   24308766.906 7  24308766.26144  24308773.87944
      6589.040        5134.307  
 120050348.997    93372517.212    22473672.571 7  22473671.738 6  22473677.499 6
      6887.328        5356.810  
 125558175.807    97837561.2814   23892922.765 6  23892922.42643  23892926.76243
      6200.167        4831.282  
 11  5 30 15 25 15.0000000  0 14G27G 9R10R11G15R20G17G12R 2R21G 4G25
                                R12G14                              
 110102306.861    85794022.8504   20951772.231 8  20951771.81346  20951775.82546
      2535.496        1975.708  
 104346835.402    81309243.7204   19856542.482 8  19856542.27647  19856545.83747
      3248.872        2531.584  
 113126051.779    87986947.757    21222161.634 7  21222160.628 7  21222168.001 6
       632.900         492.261  
 104185030.295    81032818.869    19496806.874 7  19496806.812 7  19496810.720 6
      3999.688        3110.867  
 122015140.785    95076748.4434   23218712.795 7  23218713.09045  23218718.05045
       -98.673         -76.890  
 109062674.473    84826545.753    20395269.415 7  20395269.227 6  20395273.160 7
      1887.719        1468.231  
 118709885.134    92501230.5584   22589741.386 7  22589741.24145  22589744.22645
      1167.518         909.760  
 111663320.773    87010401.8264   21248819.544 7  21248819.51246  21248822.36846
      5257.821        4097.011  
 120682054.687    93863839.501    22615764.105 6  22615763.522 6  22615769.408 7
      2172.946        1690.073  
 109396518.978    85086206.595    20443347.886 8  20443347.244 8  20443349.119 7
      6175.701        4803.323  
 127459391.273    99319027.2104   24254712.180 6  24254712.69243  24254718.86643
      6046.412        4711.500  
 127710520.219    99514719.6464   24302497.561 6  24302497.18544  24302505.02844
      6588.292        5133.724  
 120015913.850    93345734.316    22467226.030 7  22467225.541 7  22467231.234 6
      6886.596        5356.238  
 125527180.985    97813409.4824   23887024.536 6  23887024.23343  23887028.98443
      6197.816        4829.453  
 11  5 30 15 25 20.0000000  0 14G27G 9R10R11G15R20G17G12R 2R21G 4G25
                                R12G14                              
 110089634.611    85784148.3654   20949360.886 8  20949360.30346  20949364.34846
      2533.474        1974.137  
 104330599.047    81296592.0154   19853453.035 8  19853452.58547  19853456.13847
      3245.666        2529.095  
 113122892.843    87984490.797    21221568.268 7  21221568.026 7  21221575.232 6
       630.727         490.582  
 104165038.341    81017269.573    19493065.635 7  19493065.646 7  19493069.612 6
      3997.077        3108.830  
 122015638.264    95077136.0704   23218807.452 7  23218807.64745  23218812.56445
      -100.207         -78.077  
 109053247.291    84819213.496    20393505.615 6  20393506.358 6  20393510.169 7
      1883.248        1464.752  
 118704053.853    92496686.7024   22588631.418 7  22588631.57445  22588634.61445
      1164.869         907.677  
 111637036.689    86989920.7244   21243817.715 8  21243817.74546  21243820.61646
      5255.856        4095.475  
 120671199.999    93855396.956    22613730.794 7  22613729.740 6  22613735.312 7
      2168.875        1686.904  
 109365649.650    85062197.125    20437578.645 8  20437578.621 8  20437580.607 7
      6172.037        4800.472  
 127429163.183    99295472.8914   24248960.504 6  24248960.05843  24248966.88143
      6044.671        4710.148  
 127677580.830    99489052.6094   24296229.281 6  24296228.84444  24296236.74844
      6587.606        5133.188  
 119981482.372    93318954.280    22460780.038 7  22460779.778 6  22460785.825 6
      6886.074        5355.830  
 125496196.965    97789266.0924   23881128.423 6  23881128.10643  23881132.62543
      6195.729        4827.838  
 11  5 30 15 25 25.0000000  0 14G27G 9R10R11G15R20G17G12R 2R21G 4G25
                                R12G14                              
 110076973.674    85774282.7034   20946951.527 8  20946950.99246  20946955.05246
      2531.077        1972.271  
 104314379.314    81283953.2614   19850366.366 8  19850366.08247  19850369.62747
      3242.268        2526.445  
 113119744.855    87982042.356    21220977.976 7  21220977.516 7  21220984.754 6
       628.515         488.849  
 104145060.717    81001731.424    19489327.096 7  19489327.109 7  19489330.968 6
      3994.135        3106.536  
 122016143.172    95077529.4944   23218904.112 7  23218903.85845  23218908.40545
      -101.658         -79.207  
 109043842.949    84811899.003    20391747.504 7  20391747.567 6  20391751.551 7
      1878.701        1461.215  
 118698236.046    92492153.3374   22587524.326 7  22587524.49245  22587527.54945
      1162.262         905.668  
 111610763.567    86969448.1694   21238818.052 8  21238818.16146  21238821.03246
      5253.570        4093.692  
 120660367.237    93846971.479    22611700.345 7  22611700.173 6  22611705.160 7
      2164.372        1683.405  
 109334799.511    85038202.579    20431813.833 8  20431813.792 8  20431815.538 7
      6168.060        4797.374  
 127398943.933    99271925.4344   24243209.207 6  24243209.74443  24243216.37443
      6042.963        4708.789  
 127644646.057    99463389.1704   24289962.064 7  24289961.73144  24289969.81644
      6586.395        5132.227  
 119947054.701    93292177.215    22454335.598 7  22454334.829 6  22454341.139 6
      6885.087        5355.080  
 125465223.937    97765131.2684   23875234.360 6  23875234.20443  23875238.84343
      6193.621        4826.185  
 11  5 30 15 25 30.0000000  0 14G27G 9R10R11G15R20G17G12R 2R21G 4G25
                                R12G14                              
 110064323.760    85764425.6264   20944544.309 8  20944543.88946  20944547.83946
      2528.818        1970.504  
 104298175.906    81271327.2284   19847282.960 8  19847282.65947  19847286.28447
      3239.018        2523.917  
 113116607.361    87979602.074    21220389.109 7  21220389.245 7  21220396.100 6
       626.403         487.201  
 104125097.083    80986204.153    19485591.295 7  19485591.364 7  19485594.911 6
      3991.302        3104.345  
 122016655.203    95077928.4674   23219001.519 7  23219001.34945  23219005.79045
      -103.226         -80.428  
 109034461.128    84804602.033    20389993.815 7  20389993.191 6  20389997.164 7
      1873.891        1457.463  
 118692431.382    92487630.2254   22586419.680 7  22586419.76145  22586422.92245
      1159.625         903.591  
 111584501.098    86948983.9104   21233820.882 8  21233820.57446  21233823.50446
      5251.450        4092.031  
 120649556.090    93838562.818    22609674.403 6  22609674.147 6  22609679.145 7
      2160.113        1680.086  
 109303968.206    85014222.679    20426052.726 8  20426052.294 8  20426053.789 7
      6164.353        4794.492  
 127368733.328    99248384.6954   24237460.876 6  24237461.17743  24237467.04343
      6041.147        4707.418  
 127611715.537    99437729.0564   24283695.436 6  24283694.95444  24283703.32944
      6585.764        5131.756  
 119912630.613    93265402.935    22447889.954 7  22447889.961 6  22447896.761 6
      6884.584        5354.671  
 125434261.661    97741004.8344   23869342.290 6  23869341.75543  23869346.43543
      6191.348        4824.442  
 11  5 30 15 25 35.0000000  0 14G27G 9R10R11G15R20G17G12R 2R21G 4G25
                                R12G14                              
 110051685.190    85754577.3854   20942139.381 8  20942138.84346  20942142.84946
      2526.414        1968.635  
 104281989.149    81258714.1664   19844202.859 8  19844202.41147  19844206.06547
      3235.649        2521.286  
 113113480.841    87977170.330    21219802.787 7  21219802.815 7  21219809.583 6
       624.149         485.454  
 104105147.852    80970688.083    19481857.996 7  19481858.164 7  19481861.676 6
      3988.305        3102.013  
 122017174.632    95078333.2124   23219100.294 7  23219100.32845  23219104.70645
      -104.723         -81.597  
 109025102.245    84797322.902    20388243.540 7  20388243.154 6  20388246.944 7
      1869.313        1453.906  
 118686640.222    92483117.6284   22585318.016 7  22585317.70945  22585320.97645
      1156.799         901.408  
 111558249.603    86928528.2004   21228825.313 8  21228825.15546  21228827.95046
      5249.062        4090.177  
 120638766.909    93830171.227    22607652.475 7  22607651.942 6  22607657.345 7
      2155.564        1676.552  
 109273156.008    84990257.640    20420294.556 8  20420294.029 8  20420295.934 7
      6160.437        4791.446  
 127338531.611    99224850.8934   24231713.587 6  24231714.06243  24231720.09643
      6039.459        4706.066  
 127578789.662    99412072.5614   24277429.953 6  24277429.26344  24277437.33244
      6584.569        5130.812  
 119878210.476    93238631.734    22441446.849 6  22441446.267 6  22441452.972 6
      6883.478        5353.814  
 125403310.460    97716887.0214   23863452.686 6  23863452.13543  23863456.49043
      6189.024        4822.636  
 11  5 30 15 25 40.0000000  0 14G27G 9R10R11G15R20G17G12R 2R21G 4G25
                                R12G14                              
 110039057.916    85744737.9484   20939736.324 8  20939735.95946  20939739.94746
      2524.349        1967.029  
 104265819.001    81246114.0504   19841125.502 8  19841125.26047  19841129.02047
      3232.391        2518.745  
 113110365.302    87974747.129    21219218.956 7  21219218.212 7  21219224.984 6
       622.207         483.940  
 104085212.947    80955183.159    19478128.046 7  19478127.669 7  19478131.288 6
      3985.646        3099.936  
 122017701.445    95078743.7034   23219200.568 7  23219200.62445  23219205.18845
      -105.866         -82.491  
 109015766.290    84790061.599    20386496.505 6  20386497.100 6  20386501.117 7
      1865.000        1450.554  
 118680862.467    92478615.4774   22584218.493 7  22584218.28745  22584221.39045
      1154.372         899.513  
 111532009.027    86908081.0034   21223831.803 8  21223831.73346  21223834.59246
      5247.065        4088.625  
 120627999.664    93821796.693    22605634.975 7  22605634.414 6  22605639.738 7
      2151.333        1673.245  
 109242362.956    84966307.493    20414540.166 8  20414539.442 8  20414541.610 7
      6156.739        4788.574  
 127308338.739    99201324.0034   24225968.491 6  24225968.26243  24225974.51243
      6037.814        4704.779  
 127545868.373    99386419.6264   24271165.375 6  24271164.63644  24271172.92044
      6583.963        5130.365  
 119843794.206    93211863.524    22435004.003 6  22435003.596 6  22435009.933 6
      6882.930        5353.396  
 125372370.277    97692777.7964   23857564.849 6  23857564.37943  23857569.22943
      6186.601        4820.720  
 11  5 30 15 25 45.0000000  0 14G27G 9R10R11G15R20G17G12R 2R21G 4G25
                                R12G14                              
 110026441.576    85734907.0314   20937335.753 8  20937335.22646  20937339.12846
      2522.204        1965.348  
 104249665.063    81233526.5694   19838051.678 8  19838051.34147  19838054.90547
      3229.089        2516.174  
 113107260.193    87972332.032    21218636.179 7  21218635.302 7  21218642.772 6
       620.106         482.323  
 104065292.024    80939689.108    19474399.570 7  19474399.559 7  19474403.242 6
      3982.762        3097.706  
 122018235.233    95079159.6384   23219301.930 7  23219302.14945  23219306.80945
      -107.437         -83.723  
 109006452.534    84782817.565    20384755.781 7  20384755.381 6  20384759.358 7
      1860.609        1447.140  
