     2.10           OBSERVATION DATA    M (MIXED)           RINEX VERSION / TYPE
Pinnacle 1.00                           30-MAY-11 20:31     PGM / RUN BY / DATE
build April 19, 2002                                        COMMENT
-Unknown-           -Unknown-                               OBSERVER / AGENCY
         Begin Pinnacle project                             COMMENT
VG_GPS                                                      COMMENT
                                                            COMMENT
                                                            COMMENT
May 30, 2011 8:29:02 pm                                     COMMENT
                                                            COMMENT
                                                            COMMENT
C:\data\VG_GPS\projekt\Pinnacle.dbd                         COMMENT
         End Pinnacle project                               COMMENT
                                                            COMMENT
1005                                                        MARKER NAME
1005                                                        MARKER NUMBER
8QG4AWP4FEO         TPS HIPER           3.3 Dec,22,2008 p6  REC # / TYPE / VERS
-Unknown-           TPSPG_A1                                ANT # / TYPE
  3916136.5466  1193312.7974  4875246.9198                  APPROX POSITION XYZ
        1.2700        0.0000        0.0000                  ANTENNA: DELTA H/E/N
     1     1                                                WAVELENGTH FACT L1/2
     7    L1    L2    C1    P1    P2    D1    D2            # / TYPES OF OBSERV
     5.000                                                  INTERVAL
  2011     5    30    16    45   45.0000000     GPS         TIME OF FIRST OBS
  2011     5    30    18    17   30.0000000     GPS         TIME OF LAST OBS
    15                                                      LEAP SECONDS
    16                                                      # OF SATELLITES
   R 5   294   294   294   294   294   294   294            PRN / # OF OBS
   R11  1023   839  1023  1016   839  1023   839            PRN / # OF OBS
   R12  1102  1102  1102  1102  1102  1102  1102            PRN / # OF OBS
   R13  1102  1102  1102  1102  1102  1102  1102            PRN / # OF OBS
   R20   156   156   156   156   156   156   156            PRN / # OF OBS
   R21  1102  1102  1102  1102  1102  1102  1102            PRN / # OF OBS
   R22  1102  1102  1102  1102  1102  1102  1102            PRN / # OF OBS
   R23   818   804   818   811   804   818   804            PRN / # OF OBS
   G 2  1102  1091  1102  1091  1091  1102  1091            PRN / # OF OBS
   G 4  1102  1101  1102  1101  1101  1102  1101            PRN / # OF OBS
   G 9   910   799   910   799   799   910   799            PRN / # OF OBS
   G14  1101  1062  1101  1062  1062  1101  1062            PRN / # OF OBS
   G25  1102  1102  1102  1102  1102  1102  1102            PRN / # OF OBS
   G27   615   560   615   560   560   615   560            PRN / # OF OBS
   G29  1099  1089  1099  1089  1089  1099  1089            PRN / # OF OBS
   G31   843   843   843   843   843   843   843            PRN / # OF OBS
SE TPS d6deae16                                             COMMENT
                                                            END OF HEADER
 11  5 30 16 45 45.0000000  0 13R21R12R11R22G 9G25G27G14G 4G 2G29R20
                                R13                                 
 105063849.146    81716345.702    19633692.426 8  19633691.604 8  19633692.293 7
      1619.737        1259.796  
 105276128.850    81881453.086    19707912.743 8  19707912.316 8  19707917.006 7
      4911.164        3819.788  
 107422602.893    83550935.648    20102675.225 7  20102674.912 7  20102680.212 6
       666.080         518.065  
 107880552.859    83907114.665    20209662.442 8  20209661.541 8  20209665.477 8
      5791.638        4504.591  
 111291647.136    86720777.1394   21178094.891 7  21178093.87143  21178098.37243
       -52.331         -40.792  
 113594573.206    88515268.5824   21616329.336 8  21616328.32646  21616333.27946
      5088.595        3965.133  
 118056081.017                    22465325.443 6                                
       191.100                  
 117272452.376    91381145.8384   22316203.944 7  22316203.78844  22316207.28845
      2931.923        2284.630  
 119358393.605                    22713145.965 7                                
      2946.902                  
 121448353.129                    23110853.887 7                                
      5231.204                  
 124079750.472                    23611588.458 5                                
      6428.471                  
 123552234.231    96096203.524    23104889.961 5  23104889.604 5  23104896.912 6
     -1274.632        -991.375  
 126528010.993    98410694.830    23694631.594 5  23694630.893 5  23694638.821 6
      6922.914        5384.476  
 11  5 30 16 45 50.0000000  0 13R21R12R11R22G 9G25G27G14G 4G 2G29R20
                                R13                                 
 105055748.251    81710044.998    19632178.994 8  19632177.943 8  19632178.698 7
      1620.771        1260.593  
 105251567.408    81862349.746    19703314.639 8  19703314.310 8  19703319.168 7
      4913.440        3821.570  
 107419267.611    83548341.531    20102050.821 7  20102051.078 7  20102056.058 6
       668.044         519.596  
 107851590.587    83884588.470    20204235.996 8  20204235.656 8  20204239.883 8
      5793.362        4505.948  
 111291902.724    86720976.2984   21178143.275 7  21178142.74343  21178147.32243
       -49.904         -38.893  
 113569121.838    88495436.3574   21611486.023 8  21611484.96546  21611490.27046
      5091.976        3967.787  
 118055117.595    91991020.4564   22465141.640 6  22465141.93841  22465144.80641
       194.358         151.407  
 117257788.970    91369719.7934   22313413.394 7  22313413.20645  22313416.99145
      2933.604        2285.950  
 119343656.062    92995071.5934   22710342.157 7  22710342.00044  22710348.09944
      2948.266        2297.380  
 121422189.896                    23105874.547 6                                
      5234.266                  
 124047598.542                    23605470.275 4                                
      6432.942                  
 123558597.909    96101153.038    23106080.295 5  23106079.837 5  23106087.095 6
     -1270.685        -988.291  
 126493384.644    98383763.264    23688145.383 5  23688145.976 5  23688153.027 6
      6927.312        5387.887  
 11  5 30 16 45 55.0000000  0 13R21R12R11R22G 9G25G27G14G 4G 2G29R20
                                R13                                 
 105047642.366    81703740.410    19630662.758 8  19630662.426 8  19630664.306 7
      1621.615        1261.254  
 105226994.850    81843237.756    19698714.270 8  19698713.781 8  19698719.594 7
      4915.583        3823.228  
 107415922.124    83545739.473    20101424.291 7  20101425.019 7  20101430.345 6
       670.186         521.249  
 107822620.088    83862055.863    20198809.029 8  20198808.581 8  20198812.995 7
      5794.953        4507.185  
 111292145.759    86721165.6804   21178190.023 7  21178189.67443  21178193.60143
       -47.253         -36.819  
 113543653.213    88475590.6694   21606639.115 8  21606638.39046  21606644.01846
      5095.354        3970.412  
 118054137.857    91990256.9864   22464953.995 6  22464955.45241  22464959.83741
       197.711         154.063  
 117243118.209    91358288.0314   22310621.960 7  22310621.37945  22310625.23845
      2935.013        2287.036  
 119328911.471    92983582.2964   22707536.593 7  22707536.17244  22707540.98144
      2949.460        2298.276  
 121396011.804                    23100893.785 7                                
      5237.108                  
 124015426.778                    23599348.333 5                                
      6436.428                  
 123564942.115    96106087.415    23107266.528 5  23107266.377 5  23107273.073 6
     -1266.771        -985.268  
 126458734.108    98356812.859    23681657.855 5  23681656.743 5  23681662.880 6
      6932.741        5392.135  
 11  5 30 16 46  0.0000000  0 13R21R12R11R22G 9G25G27G14G 4G 2G29R20
                                R13                                 
 105039530.732    81697431.372    19629147.118 8  19629146.645 8  19629148.019 7
      1622.866        1262.240  
 105202410.598    81824116.674    19694111.945 8  19694111.199 8  19694117.031 7
      4917.959        3825.076  
 107412565.804    83543128.979    20100796.707 7  20100796.909 7  20100802.484 6
       672.220         522.838  
 107793640.662    83839516.326    20193380.081 7  20193379.452 7  20193384.274 8
      5796.770        4508.599  
 111292375.614    86721344.7464   21178232.895 6  21178233.13543  21178237.97243
       -44.660         -34.813  
 113518166.630    88455731.0004   21601788.863 8  21601788.25646  21601793.99746
      5099.011        3973.272  
 118053141.195    91989480.4444   22464765.678 6  22464765.17141  22464770.18041
       201.004         156.664  
 117228439.497    91346850.0604   22307829.059 7  22307828.39845  22307832.39345
      2936.650        2288.315  
 119314159.156    92972086.9814   22704729.989 7  22704729.70144  22704733.85544
      2951.078        2299.523  
 121369818.263                    23095910.278 7                                
      5240.175                  
 123983234.838                    23593223.754 5                                
      6440.188                  
 123571266.165    96111006.101    23108450.198 5  23108449.589 5  23108455.982 6
     -1262.980        -982.315  
 126424058.631    98329843.021    23675163.645 5  23675163.918 5  23675170.538 6
      6937.580        5395.891  
 11  5 30 16 46  5.0000000  0 13R21R12R11R22G 9G25G27G14G 4G 2G29R20
                                R13                                 
 105031413.326    81691117.836    19627630.075 8  19627629.740 8  19627631.142 7
      1623.957        1263.097  
 105177814.481    81804986.363    19689507.307 8  19689506.968 8  19689512.679 7
      4920.347        3826.956  
 107409198.399    83540509.880    20100168.050 7  20100167.187 7  20100171.952 6
       674.571         524.660  
 107764652.265    83816969.804    20187949.940 7  20187949.349 7  20187953.866 8
      5798.420        4509.872  
 111292592.226    86721513.5284   21178274.490 6  21178274.30943  21178279.17343
       -42.252         -32.919  
 113492662.047    88435857.2934   21596935.695 8  21596935.04146  21596940.41046
      5102.593        3976.062  
 118052127.475    91988690.5904   22464573.765 6  22464574.24541  22464576.58941
       204.421         159.208  
 117213752.683    91335405.7824   22305034.219 7  22305033.64045  22305037.60645
      2938.252        2289.557  
 119299399.039    92960585.5944   22701921.943 8  22701921.32144  22701924.65344
      2952.760        2300.862  
 121343609.077                    23090922.182 7                                
      5243.391                  
 123951022.708                    23587094.255 5                                
      6444.548                  
 123577569.857    96115908.972    23109628.830 5  23109628.131 5  23109634.878 6
     -1258.484        -978.823  
 126389357.997    98302853.686    23668662.780 5  23668663.267 5  23668672.188 6
      6942.668        5399.843  
 11  5 30 16 46 10.0000000  0 13R21R12R11R22G 9G25G27G14G 4G 2G29R20
                                R13                                 
 105023290.269    81684799.910    19626111.900 8  19626111.097 8  19626113.397 7
      1625.056        1263.932  
 105153206.633    81785846.936    19684900.857 8  19684900.261 8  19684906.408 7
      4922.636        3828.717  
 107405820.255    83537882.441    20099535.880 7  20099535.480 7  20099539.987 6
       676.572         526.228  
 107735655.124    83794416.474    20182519.045 7  20182517.879 7  20182521.789 8
      5800.310        4511.358  
 111292795.697    86721672.0964   21178312.885 6  21178312.92843  21178318.43243
       -39.513         -30.801  
 113467139.606    88415969.6934   21592078.222 8  21592077.86046  21592083.29746
      5106.188        3978.849  
 118051096.840    91987887.4364   22464378.838 6  22464377.36041  22464379.81241
       207.756         161.950  
 117199057.995    91323955.3684   22302239.192 7  22302237.73945  22302241.06745
      2939.625        2290.622  
 119284631.319    92949078.2784   22699111.472 7  22699111.05744  22699113.64644
      2954.288        2302.029  
 121317384.523                    23085931.261 7                                
      5246.341                  
 123918790.673    96560116.4824   23580960.844 5  23580959.92441  23580966.45141
      6448.208        5024.577  
 123583853.239    96120796.048    23110804.304 6  23110803.761 5  23110809.344 6
     -1254.522        -975.738  
 126354632.748    98275845.175    23662161.152 5  23662161.446 5  23662168.038 6
      6947.517        5403.640  
 11  5 30 16 46 15.0000000  0 13R21R12R11R22G 9G25G27G14G 4G 2G29R20
                                R13                                 
 105015161.933    81678477.875    19624592.490 8  19624591.981 8  19624594.402 7
      1626.087        1264.746  
 105128587.583    81766698.777    19680291.799 8  19680291.280 8  19680297.789 7
      4924.985        3830.541  
 107402431.552    83535246.780    20098901.220 7  20098901.207 7  20098905.916 6
       678.684         527.868  
 107706649.604    83771856.630    20177084.627 8  20177084.356 8  20177087.800 7
      5802.086        4512.740  
 111292986.376    86721820.6554   21178349.511 6  21178348.77543  21178354.43043
       -36.755         -28.648  
 113441599.710    88396068.4834   21587219.104 8  21587218.34646  21587223.62346
      5109.869        3981.720  
 118050049.710    91987071.4544   22464179.812 6  22464178.54341  22464179.89041
       211.104         164.480  
 117184355.762    91312499.0944   22299441.148 7  22299440.31145  22299443.16545
      2941.356        2291.963  
 119269856.369    92937565.3114   22696299.194 7  22696299.05544  22696301.75144
      2955.624        2303.094  
 121291144.925                    23080938.523 7                                
      5249.481                  
 123886538.936    96534985.2694   23574823.121 6  23574823.12241  23574829.49641
      6452.622        5027.989  
 123590116.728    96125667.633    23111974.617 5  23111974.371 5  23111979.685 6
     -1250.828        -972.846  
 126319882.967    98248817.561    23655652.962 5  23655652.439 5  23655661.103 6
      6952.765        5407.734  
 11  5 30 16 46 20.0000000  0 13R21R12R11R22G 9G25G27G14G 4G 2G29R20
                                R13                                 
 105007027.736    81672151.283    19623072.734 8  19623072.095 8  19623074.074 7
      1627.434        1265.776  
 105103956.711    81747541.431    19675681.174 8  19675679.764 8  19675686.691 7
      4927.256        3832.304  
 107399031.917    83532602.608    20098264.171 7  20098264.262 7  20098269.994 6
       680.979         529.652  
 107677635.051    83749289.761    20171649.562 8  20171648.792 7  20171652.656 8
      5803.756        4514.030  
 111293163.878    86721958.9544   21178382.977 7  21178382.85243  21178388.11643
       -34.148         -26.578  
 113416041.862    88376153.2674   21582355.833 8  21582355.04646  21582360.32746
      5113.363        3984.442  
 118048985.547    91986242.2374   22463976.726 6  22463976.17941  22463978.05341
       214.341         167.016  
 117169645.569    91301036.5914   22296640.969 7  22296640.75845  22296644.19945
      2942.690        2293.017  
 119255073.639    92926046.3044   22693485.527 7  22693485.32444  22693489.01444
      2957.368        2304.433  
 121264889.836                    23075943.059 7                                
      5252.622                  
 123854267.015    96509838.3534   23568681.266 6  23568681.83841  23568689.90641
      6456.400        5031.003  
 123596359.924    96130523.440    23113141.825 5  23113140.760 5  23113147.153 6
     -1246.620        -969.591  
 126285108.085    98221770.474    23649142.523 5  23649142.026 5  23649147.990 6
      6957.373        5411.287  
 11  5 30 16 46 25.0000000  0 13R21R12R11R22G 9G25G27G14G 4G 2G29R20
                                R13                                 
 104998888.323    81665820.626    19621551.410 8  19621551.098 8  19621553.143 7
      1628.293        1266.457  
 105079314.660    81728375.394    19671067.660 8  19671066.619 8  19671073.291 7
      4929.472        3834.033  
 107395621.863    83529950.330    20097625.839 7  20097625.834 7  20097631.735 6
       682.932         531.177  
 107648612.190    83726716.427    20166212.584 8  20166211.756 8  20166215.449 7
      5805.353        4515.266  
 111293328.595    86722087.2694   21178413.571 6  21178413.82143  21178419.45443
       -31.584         -24.625  
 113390466.618    88356224.5094   21577488.169 8  21577488.10346  21577494.09446
      5116.791        3987.126  
 118047904.901    91985400.1384   22463770.897 6  22463770.37741  22463772.48541
       217.984         169.843  
 117154927.814    91289568.2204   22293839.661 7  22293839.54945  22293843.57745
      2944.367        2294.313  
 119240283.764    92914521.7194   22690670.697 7  22690670.76144  22690674.45244
      2958.692        2305.475  
 121238619.818                    23070943.685 7                                
      5255.617                  
 123821975.539    96484676.2064   23562536.925 6  23562536.75742  23562545.23942
      6460.352        5034.002  
 123602583.500    96135363.991    23114304.319 5  23114304.549 5  23114312.209 6
     -1242.746        -966.576  
 126250308.931    98194704.481    23642625.242 5  23642626.758 5  23642632.712 6
      6962.591        5415.348  
 11  5 30 16 46 30.0000000  0 13R21R12R11R22G 9G25G27G14G 4G 2G29R20
                                R13                                 
 104990743.785    81659485.989    19620029.928 8  19620029.226 8  19620031.169 7
      1629.428        1267.350  
 105054661.559    81709200.760    19666452.455 8  19666451.986 8  19666457.626 7
      4931.638        3835.725  
 107392201.565    83527290.078    20096986.348 7  20096986.373 7  20096991.518 6
       685.042         532.819  
 107619581.206    83704136.772    20160774.841 8  20160773.744 8  20160777.162 8
      5806.946        4516.521  
 111293480.700    86722205.8004   21178443.660 6  21178443.08543  21178448.16243
       -29.371         -22.879  
 113364874.038    88336282.2404   21572618.198 8  21572617.91846  21572624.35346
      5120.166        3989.732  
 118046807.858    91984545.3144   22463562.193 6  22463562.08041  22463565.46341
       221.099         172.212  
 117140202.726    91278094.1174   22291037.323 7  22291037.53145  22291041.83345
      2945.848        2295.471  
 119225486.787    92902991.6074   22687854.748 7  22687854.44144  22687858.75144
      2960.117        2306.580  
 121212334.429                    23065941.843 6                                
      5258.485                  
 123789664.625    96459498.8614   23556388.663 5  23556388.03642  23556396.50142
      6464.168        5037.025  
 123608787.198    96140189.070    23115466.227 5  23115466.188 5  23115471.771 6
     -1238.593        -963.348  
 126215485.534    98167619.630    23636105.991 6  23636105.266 5  23636111.089 6
      6967.015        5418.774  
 11  5 30 16 46 35.0000000  0 13R21R12R11R22G 9G25G27G14G 4G 2G29R20
                                R13                                 
 104982594.342    81653147.532    19618507.252 8  19618506.072 8  19618508.180 7
      1630.422        1268.094  
 105029997.736    81690017.786    19661836.166 8  19661835.457 8  19661840.552 7
      4933.831        3837.410  
 107388771.277    83524622.059    20096343.998 7  20096344.522 7  20096349.227 6
       687.025         534.355  
 107590542.281    83681550.945    20155334.135 8  20155333.539 8  20155337.268 8
      5808.506        4517.738  
 111293620.477    86722314.6744   21178468.738 6  21178469.20143  21178474.56343
       -26.553         -20.668  
 113339264.483    88316326.7304   21567744.752 8  21567743.90146  21567751.15446
      5123.602        3992.405  
 118045694.785    91983677.9344   22463350.759 5  22463351.12541  22463353.53641
       224.428         174.844  
 117125470.561    91266614.4934   22288233.717 7  22288233.47145  22288238.10245
      2947.425        2296.685  
 119210683.028    92891456.2114   22685038.612 7  22685037.84344  22685042.18044
      2961.353        2307.531  
 121186035.048                    23060937.606 7                                
      5261.282                  
 123757334.510    96434306.5774   23550235.719 5  23550236.06242  23550242.93042
      6467.945        5039.913  
 123614971.406    96144999.003    23116622.093 5  23116622.532 5  23116628.198 6
     -1234.820        -960.434  
 126180638.243    98140516.186    23629581.911 6  23629580.850 6  23629586.719 6
      6971.708        5422.428  
 11  5 30 16 46 40.0000000  0 13R21R12R11R22G 9G25G27G14G 4G 2G29R20
                                R13                                 
 104974439.835    81646805.137    19616983.613 8  19616982.357 8  19616984.442 7
      1631.454        1268.915  
 105005322.916    81670826.263    19657217.013 8  19657216.652 8  19657221.446 7
      4936.253        3839.307  
 107385330.734    83521946.077    20095699.914 7  20095700.221 7  20095705.425 6
       689.221         536.071  
 107561495.248    83658958.804    20149892.307 8  20149891.840 8  20149895.780 7
      5810.230        4519.067  
 111293747.709    86722413.8054   21178493.983 6  21178493.65443  21178498.45343
       -23.864         -18.554  
 113313637.728    88296357.8304   21562867.997 8  21562867.29846  21562874.34746
      5127.099        3995.144  
 118044565.317    91982797.8154   22463136.492 6  22463136.02441  22463139.54241
       227.204         177.074  
 117110731.147    91255129.2394   22285427.344 6  22285428.05045  22285433.61944
      2948.816        2297.787  
 119195872.225    92879915.3324   22682219.023 7  22682219.34944  22682223.79244
      2962.711        2308.602  
 121159720.947    94410198.2274   23055929.164 7  23055929.45044  23055935.64644
      5264.292        4102.032  
 123724985.099    96409099.2714   23544080.752 6  23544080.73142  23544087.35342
      6471.661        5042.860  
 123621136.065    96149793.714    23117775.613 5  23117775.123 5  23117781.526 6
     -1230.835        -957.310  
 126145766.670    98113393.870    23623050.838 6  23623050.477 6  23623056.376 6
      6976.853        5426.449  
 11  5 30 16 46 45.0000000  0 13R21R12R11R22G 9G25G27G14G 4G 2G29R20
                                R13                                 
 104966280.416    81640458.916    19615458.393 8  19615457.671 8  19615459.244 7
      1632.302        1269.557  
 104980637.238    81651626.293    19652595.833 8  19652595.773 8  19652600.257 7
      4938.143        3840.778  
 107381880.081    83519262.231    20095055.030 7  20095054.875 7  20095059.500 6
       691.098         537.508  
 107532440.283    83636360.508    20144449.196 8  20144448.714 8  20144452.951 8
      5811.777        4520.260  
 111293862.383    86722503.1584   21178516.146 6  21178515.23343  21178519.62143
       -21.729         -16.968  
 113287993.826    88276375.5834   21557988.067 8  21557987.34446  21557994.34646
      5130.489        3997.790  
 118043419.612    91981905.0774   22462917.681 5  22462916.18841  22462920.86841
       230.623         179.691  
 117095984.538    91243638.3814   22282621.649 7  22282621.61944  22282627.29644
      2949.632        2298.385  
 119181054.502    92868369.0574   22679400.638 7  22679399.87744  22679404.13744
      2964.314        2309.870  
 121133392.178    94389682.2944   23050918.671 7  23050918.45644  23050922.24744
      5267.167        4104.244  
 123692616.384    96383876.8984   23537921.525 6  23537921.29742  23537929.25342
      6475.662        5045.940  
 123627281.059    96154573.147    23118925.338 5  23118924.517 5  23118930.485 6
     -1226.693        -954.100  
 126110871.182    98086252.951    23616516.519 6  23616515.940 6  23616521.478 6
      6981.482        5430.030  
 11  5 30 16 46 50.0000000  0 13R21R12R11R22G 9G25G27G14G 4G 2G29R20
                                R13                                 
 104958116.425    81634109.147    19613932.229 8  19613932.391 8  19613933.885 7
      1633.168        1270.244  
 104955941.247    81632418.302    19647973.204 8  19647972.587 8  19647977.210 7
      4940.375        3842.525  
 107378419.668    83516570.798    20094408.099 7  20094407.746 7  20094411.647 6
       693.117         539.082  
 107503377.782    83613756.358    20139004.195 8  20139004.116 7  20139008.656 7
      5813.393        4521.538  
 111293965.033    86722583.1424   21178536.141 7  21178535.26443  21178538.95543
       -19.041         -14.842  
 113262333.322    88256380.3904   21553105.598 8  21553104.62546  21553111.42146
      5133.853        4000.416  
 118042258.258    91981000.0884   22462695.791 5  22462696.15141  22462699.62641
       233.398         181.949  
 117081231.183    91232142.2524   22279814.335 6  22279814.21944  22279819.65844
      2951.668        2300.034  
 119166230.494    92856817.8784   22676579.406 7  22676578.78244  22676582.32144
      2965.418        2310.715  
 121107049.310    94369155.3924   23045905.897 6  23045905.04544  23045908.92944
      5270.067        4106.525  
 123660228.998    96358639.9854   23531758.286 6  23531758.04542  23531766.07442
      6479.538        5049.041  
 123633406.944    96159337.703    23120071.525 5  23120070.041 5  23120076.092 6
     -1223.417        -951.548  
 126075952.140    98059093.680    23609977.537 6  23609977.300 6  23609982.534 6
      6986.354        5433.831  
 11  5 30 16 46 55.0000000  0 13R21R12R11R22G 9G25G27G14G 4G 2G29R20
                                R13                                 
 104949948.143    81627756.048    19612405.871 8  19612406.109 8  19612407.033 7
      1634.057        1270.946  
 104931235.128    81613202.434    19643348.021 8  19643347.235 8  19643351.843 7
      4942.212        3843.942  
 107374949.939    83513872.122    20093758.289 7  20093758.029 7  20093762.299 6
       694.836         540.423  
 107474308.008    83591146.540    20133559.270 8  20133558.477 8  20133562.984 7
      5814.726        4522.568  
 111294055.879    86722653.9514   21178554.233 7  21178553.27943  21178556.18443
       -16.726         -13.059  
 113236656.437    88236372.4344   21548219.131 8  21548218.75746  21548225.30446
      5136.993        4002.861  
 118041081.263    91980082.9484   22462470.867 5  22462472.23241  22462475.75141
       236.551         184.250  
 117066471.335    91220641.0644   22277006.159 7  22277005.57344  22277010.83444
      2952.503        2300.642  
 119151400.210    92845261.8184   22673756.649 7  22673756.27844  22673760.27144
      2966.673        2311.722  
 121080692.554    94348617.6704   23040889.540 7  23040889.15244  23040893.74944
      5272.759        4108.626  
 123627823.063    96333388.6404   23525591.982 6  23525591.86543  23525598.19543
      6483.011        5051.636  
 123639513.865    96164087.518    23121213.128 5  23121212.057 5  23121217.772 6
     -1219.633        -948.597  
 126041009.650    98031916.208    23603432.999 6  23603432.857 6  23603439.000 6
      6990.791        5437.279  
 11  5 30 16 47  0.0000000  0 13R21R12R11R22G 9G25G27G14G 4G 2G29R20
                                R13                                 
 104941775.627    81621399.631    19610879.175 8  19610878.711 8  19610879.419 7
      1634.967        1271.637  
 104906519.067    81593978.837    19638720.706 8  19638720.566 8  19638725.090 7
      4944.230        3845.510  
 107371470.916    83511166.200    20093106.754 7  20093106.956 7  20093111.289 6
       696.795         541.952  
 107445231.113    83568531.180    20128111.679 8  20128111.050 8  20128115.102 7
      5816.075        4523.610  
 111294135.118    86722715.6864   21178568.001 6  21178568.16743  21178570.78143
       -14.517         -11.283  
 113210963.288    88216351.7874   21543329.590 8  21543329.37846  21543335.68546
      5140.255        4005.387  
 118039888.797    91979153.7584   22462243.369 5  22462244.28241  22462249.39841
       240.257         187.184  
 117051705.113    91209134.9044   22274195.547 7  22274195.47544  22274200.86244
      2953.837        2301.687  
 119136563.902    92833701.0424   22670934.440 7  22670933.43344  22670937.43344
      2967.636        2312.449  
 121054322.063    94328069.2274   23035871.591 7  23035871.48944  23035875.57644
      5275.582        4110.860  
 123595398.756    96308122.9714   23519420.721 6  23519421.55843  23519428.74143
      6486.755        5054.653  
 123645601.991    96168822.725    23122351.435 5  23122351.112 5  23122356.677 6
     -1215.981        -945.772  
 126006044.083    98004720.780    23596886.392 6  23596885.337 6  23596891.640 6
      6995.555        5440.991  
 11  5 30 16 47  5.0000000  0 13R21R12R11R22G 9G25G27G14G 4G 2G29R20
                                R13                                 
 104933598.859    81615039.916    19609351.487 8  19609350.853 8  19609351.403 7
      1635.778        1272.265  
 104881792.976    81574747.436    19634092.374 8  19634092.048 8  19634095.791 7
      4946.210        3847.054  
 107367982.420    83508452.933    20092454.341 7  20092454.457 7  20092458.658 6
       698.797         543.516  
 107416147.130    83545910.302    20122663.042 8  20122662.534 7  20122666.442 7
      5817.597        4524.795  
 111294202.507    86722768.1664   21178580.411 6  21178580.35543  21178583.96243
       -12.311          -9.581  
 113185253.770    88196318.4044   21538437.515 8  21538437.09646  21538443.53946
      5143.542        4007.955  
 118038680.979    91978212.5904   22462014.357 6  22462013.96241  22462020.47641
       243.030         189.382  
 117036932.482    91197623.7394   22271384.881 6  22271384.82245  22271389.90544
      2955.196        2302.766  
 119121721.372    92822135.4234   22668108.878 7  22668108.94344  22668113.35144
      2969.202        2313.672  
 121027937.806    94307510.0704   23030851.891 7  23030851.04944  23030855.02944
      5278.080        4112.814  
 123562955.918    96282842.8444   23513247.739 6  23513246.96543  23513255.38243
      6490.522        5057.545  
 123651671.269    96173543.268    23123486.947 5  23123486.566 5  23123491.535 6
     -1211.868        -942.555  
 125971055.289    97977507.274    23590333.827 6  23590333.048 6  23590338.773 6
      7000.021        5444.481  
 11  5 30 16 47 10.0000000  0 13R21R12R11R22G 9G25G27G14G 4G 2G29R20
                                R13                                 
 104925418.021    81608677.043    19607822.892 8  19607822.099 8  19607822.463 7
      1636.702        1272.993  
 104857057.007    81555508.353    19629461.092 8  19629460.784 8  19629465.582 7
      4948.292        3848.683  
 107364484.775    83505732.543    20091800.090 7  20091799.891 7  20091804.430 6
       700.443         544.795  
 107387055.978    83523283.878    20117213.581 8  20117213.137 7  20117216.913 7
      5818.910        4525.821  
 111294258.175    86722811.5474   21178589.395 5  21178590.56243  21178595.02443
        -9.983          -7.809  
 113159528.052    88176272.3884   21533541.397 8  21533541.58246  21533547.99546
      5146.864        4010.552  
 118037457.715    91977259.4514   22461782.005 5  22461781.11641  22461786.03041
       245.840         191.507  
 117022153.513    91186107.6654   22268572.313 7  22268572.44745  22268577.62545
      2956.487        2303.767  
 119106872.898    92810565.1924   22665283.786 7  22665283.17944  22665287.22944
      2970.366        2314.573  
 121001539.814    94286940.1994   23025828.430 7  23025827.91444  23025831.93844
      5281.007        4115.073  
 123530494.793    96257548.4304   23507070.784 6  23507070.86343  23507077.09443
      6494.149        5060.375  
 123657721.817    96178249.229    23124616.812 5  23124617.406 5  23124622.389 6
     -1207.865        -939.462  
 125936043.352    97950275.786    23583776.771 6  23583776.046 6  23583783.281 6
      7004.835        5448.213  
 11  5 30 16 47 15.0000000  0 13R21R12R11R22G 9G25G27G14G 4G 2G29R20
                                R13                                 
 104917233.013    81602310.907    19606292.912 8  19606292.111 8  19606292.885 7
      1637.402        1273.533  
 104832311.212    81536261.625    19624828.808 8  19624828.109 8  19624833.208 7
      4950.107        3850.079  
 107360977.891    83503004.938    20091142.779 7  20091143.109 7  20091148.137 6
       702.363         546.279  
 107357957.938    83500652.055    20111762.590 8  20111762.001 8  20111765.278 7
      5820.320        4526.909  
 111294302.337    86722845.9554   21178600.252 6  21178599.20943  21178602.96343
        -7.367          -5.738  
 113133786.195    88156213.7864   21528643.098 8  21528642.96746  21528649.62846
      5150.032        4013.018  
 118036219.189    91976294.2534   22461547.482 5  22461546.08941  22461549.14841
       249.906         194.766  
 117007368.300    91174586.7194   22265759.418 6  22265759.22145  22265764.61545
      2957.488        2304.527  
 119092018.503    92798990.3224   22662456.696 7  22662456.81244  22662460.78544
      2971.564        2315.484  
 120975128.220    94266359.7444   23020802.483 7  23020802.20944  23020805.31744
      5283.805        4117.246  
 123498015.393    96232239.8564   23500890.261 6  23500890.18942  23500896.35343
      6497.478        5062.974  
 123663753.655    96182940.653    23125746.563 5  23125744.612 5  23125751.289 6
     -1204.791        -937.056  
 125901008.466    97923026.450    23577216.366 6  23577215.738 6  23577222.509 6
      7009.047        5451.479  
 11  5 30 16 47 20.0000000  0 13R21R12R11R22G 9G25G27G14G 4G 2G29R20
                                R13                                 
 104909044.244    81595941.869    19604762.285 8  19604761.735 8  19604763.078 7
      1638.170        1274.155  
 104807555.900    81517007.502    19620195.544 8  19620194.643 8  19620199.099 7
      4951.969        3851.535  
 107357462.069    83500270.405    20090486.592 7  20090485.908 7  20090490.007 6
       704.072         547.610  
 107328853.215    83478015.089    20106310.085 7  20106309.414 7  20106312.941 7
      5821.669        4527.958  
 111294335.219    86722871.5444   21178604.906 6  21178604.56843  21178609.94643
        -5.571          -4.307  
 113108028.486    88136142.8534   21523741.978 8  21523741.40446  21523747.50246
      5152.961        4015.293  
 118034965.581    91975317.5154   22461306.611 5  22461306.82541  22461311.52541
       252.030         196.424  
 116992577.094    91163061.1154   22262944.805 6  22262944.77145  22262949.73645
      2959.041        2305.743  
 119077158.470    92787411.0874   22659629.022 7  22659628.98244  22659634.12944
      2972.433        2316.182  
 120948703.345    94245768.9304   23015774.299 7  23015774.01044  23015776.83244
      5286.285        4119.183  
 123465518.061    96206917.2284   23494705.725 5  23494706.07942  23494712.32043
      6501.399        5066.048  
 123669767.038    96187617.712    23126870.181 5  23126868.817 5  23126875.265 6
     -1201.272        -934.308  
 125865950.776    97895759.367    23570646.285 6  23570649.004 6  23570655.859 6
      7013.922        5455.285  
 11  5 30 16 47 25.0000000  0 13R21R12R11R22G 9G25G27G14G 4G 2G29R20
                                R13                                 
 104900851.773    81589569.947    19603232.042 8  19603231.106 8  19603232.068 7
      1638.856        1274.669  
 104782791.359    81497746.193    19615560.188 8  19615559.176 8  19615563.359 7
      4953.753        3852.931  
 107353937.551    83497529.137    20089826.743 7  20089826.691 7  20089830.157 6
       705.841         548.981  
 107299742.136    83455373.151    20100857.550 7  20100856.557 7  20100859.848 7
      5822.653        4528.745  
 111294357.013    86722888.4784   21178610.166 6  21178608.97443  21178613.46243
        -3.714          -2.899  
 113082255.141    88116059.7314   21518838.009 8  21518836.91746  21518843.20846
      5156.344        4017.919  
 118033697.092    91974329.0624   22461063.486 5  22461064.75641  22461072.41941
       255.172         198.844  
 116977780.199    91151531.0474   22260129.532 6  22260128.68645  22260133.94145
      2959.832        2306.364  
 119062293.040    92775827.6334   22656800.401 7  22656800.10744  22656804.61144
      2973.617        2317.091  
 120922265.388    94225167.9474   23010743.911 7  23010743.59745  23010746.06245
      5288.812        4121.162  
 123433002.993    96181580.8474   23488518.385 5  23488518.15442  23488525.00842
      6504.395        5068.334  
 123675762.322    96192280.684    23127990.769 5  23127991.215 5  23127996.264 6
     -1197.465        -931.344  
 125830870.723    97868474.864    23564082.207 6  23564081.088 6  23564086.313 6
      7018.181        5458.547  
 11  5 30 16 47 30.0000000  0 13R21R12R11R22G 9G25G27G14G 4G 2G29R20
                                R13                                 
 104892656.226    81583195.631    19601699.209 8  19601699.355 8  19601700.245 7
      1639.501        1275.175  
 104758018.109    81478478.100    19610920.327 8  19610920.179 8  19610926.235 7
      4955.524        3854.279  
 107350404.908    83494781.516    20089165.552 7  20089165.262 7  20089169.496 6
       707.401         550.213  
 107270625.223    83432726.623    20095402.244 8  20095401.594 7  20095405.284 7
      5824.011        4529.792  
 111294368.173    86722897.1344   21178612.316 6  21178611.39143  21178615.32543
        -1.212          -0.976  
 113056466.778    88095964.8904   21513929.786 8  21513929.04846  21513936.65146
      5159.161        4020.125  
 118032414.504    91973329.6254   22460819.685 4  22460820.67141  22460828.84241
       257.798         200.872  
 116962978.103    91139996.9334   22257312.886 7  22257312.17445  22257317.23345
      2961.104        2307.358  
 119047422.672    92764240.3284   22653970.249 7  22653970.67744  22653974.83044
      2974.318        2317.647  
 120895814.959    94204557.2204   23005710.254 7  23005709.74244  23005712.64545
      5291.395        4123.171  
 123400470.707    96156230.9944   23482327.948 6  23482327.76942  23482334.62242
      6508.283        5071.395  
 123681739.968    96196929.965    23129107.766 5  23129109.096 5  23129113.958 6
     -1193.828        -928.533  
 125795768.625    97841173.252    23557507.128 6  23557506.670 6  23557513.121 6
      7022.620        5462.021  
 11  5 30 16 47 35.0000000  0 12R21R12R11R22G 9G25G14G 4G 2G29R20R13
 104884457.726    81576819.026    19600167.723 8  19600167.228 8  19600168.198 7
      1639.992        1275.557  
 104733236.238    81459203.310    19606281.879 8  19606281.073 8  19606286.206 7
      4957.330        3855.700  
 107346864.200    83492027.650    20088502.449 7  20088502.361 7  20088507.334 6
       708.845         551.341  
 107241502.434    83410075.572    20089946.557 7  20089945.885 7  20089949.726 7
      5825.231        4530.732  
 111294368.784    86722897.5864   21178613.252 5  21178611.32543  21178615.93243
         1.038           0.833  
 113030663.318    88075858.3004   21509019.784 8  21509019.10046  21509026.28246
      5162.249        4022.538  
 116948170.783    91128458.7764   22254495.727 7  22254495.15045  22254499.39445
      2962.054        2308.085  
 119032547.466    92752649.2874   22651139.875 7  22651139.83144  22651144.44344
      2975.088        2318.272  
 120869352.035    94183936.7804   23000675.098 7  23000673.99044  23000676.93144
      5293.660        4124.913  
 123367921.327    96130867.8734   23476134.680 6  23476134.65742  23476141.35542
      6511.766        5074.111  
 123687699.760    96201565.363    23130222.164 5  23130222.590 5  23130227.974 6
     -1190.416        -925.887  
 125760644.714    97813854.662    23550929.467 6  23550929.151 6  23550935.198 6
      7026.587        5465.133  
 11  5 30 16 47 40.0000000  0 13R21R12R11R22G 9G25G27G14G 4G 2G29R20
                                R13                                 
 104876256.203    81570440.064    19598634.905 8  19598634.556 8  19598635.562 7
      1640.559        1275.989  
 104708445.861    81439921.918    19601641.310 8  19601640.833 8  19601646.203 7
      4958.870        3856.892  
 107343315.443    83489267.497    20087838.902 7  20087838.426 7  20087843.384 6
       710.589         552.674  
 107212373.962    83387420.094    20084490.167 8  20084489.183 8  20084493.188 7
      5826.167        4531.449  
 111294358.991    86722889.9544   21178611.268 6  21178610.01743  21178614.46743
         2.895           2.242  
 113004844.985    88055740.1194   21504106.653 8  21504106.06546  21504112.83546
      5164.961        4024.640  
 118029783.516                    22460326.553 4                                
       263.399                  
 116933358.440    91116916.6724   22251677.337 7  22251676.27544  22251680.49645
      2962.975        2308.807  
 119017667.510    92741054.5074   22648307.080 7  22648307.43744  22648313.04944
      2976.252        2319.145  
 120842876.854    94163306.7704   22995635.825 7  22995635.46644  22995639.06144
      5296.303        4126.982  
 123335355.005    96105491.5244   23469937.913 6  23469938.19243  23469943.91143
      6514.842        5076.474  
 123693642.044    96206187.125    23131334.548 5  23131333.470 5  23131339.849 6
     -1186.915        -923.155  
 125725499.044    97786519.132    23544349.213 6  23544347.569 6  23544352.249 6
      7031.420        5468.877  
 11  5 30 16 47 45.0000000  0 13R21R12R11R22G 9G25G27G14G 4G 2G29R20
                                R13                                 
 104868052.149    81564059.118    19597101.743 8  19597101.314 8  19597102.056 7
      1641.184        1276.466  
 104683647.286    81420634.147    19596998.008 8  19596997.920 8  19597003.412 7
      4960.506        3858.165  
 107339758.959    83486501.335    20087173.365 7  20087172.970 7  20087177.661 6
       712.094         553.855  
 107183240.137    83364760.435    20079032.098 8  20079031.631 8  20079035.191 7
      5827.298        4532.346  
 111294339.014    86722874.4394   21178607.292 6  21178606.02143  21178610.72643
         5.110           3.966  
 112979012.036    88035610.5674   21499190.391 8  21499190.19646  21499197.11246
      5168.064        4027.052  
 118028458.534                    22460076.037 4                                
       266.386                  
 116918541.386    91105370.9104   22248857.994 7  22248857.30945  22248860.96745
      2964.010        2309.640  
 119002783.207    92729456.3434   22645476.275 7  22645475.47544  22645481.03544
      2977.215        2319.906  
 120816389.703    94142667.4294   22990594.511 7  22990594.63544  22990598.60344
      5298.822        4128.970  
 123302772.053    96080102.2204   23463738.554 6  23463737.77343  23463743.68643
      6518.063        5079.044  
 123699567.171    96210795.530    23132441.944 5  23132442.524 5  23132448.173 6
     -1183.205        -920.257  
 125690332.027    97759167.028    23537762.463 6  23537761.666 6  23537767.874 6
      7035.491        5472.034  
 11  5 30 16 47 50.0000000  0 13R21R12R11R22G 9G25G27G14G 4G 2G29R20
                                R13                                 
 104859845.643    81557676.282    19595568.774 8  19595568.106 8  19595569.446 7
      1641.491        1276.723  
 104658840.689    81401340.105    19592354.975 8  19592354.189 8  19592359.006 7
      4962.097        3859.408  
 107336195.016    83483729.351    20086506.289 7  20086506.197 7  20086510.436 6
       713.494         554.934  
 107154101.153    83342096.794    20073573.566 8  20073572.668 7  20073576.797 7
      5828.324        4533.132  
 111294309.113    86722851.1484   21178600.051 6  21178600.05543  21178605.19943
         6.745           5.253  
 112953164.656    88015469.7514   21494272.213 8  21494271.72046  21494278.46746
      5170.931        4029.316  
 118027120.072                    22459820.184 4                                
       269.134                  
 116903719.749    91093821.5644   22246037.041 7  22246036.65445  22246040.44945
      2964.466        2309.975  
 118987894.608    92717854.8304   22642643.350 7  22642643.00544  22642648.49245
      2978.345        2320.797  
 120789890.689    94122018.8534   22985552.236 6  22985551.98444  22985556.08744
      5300.991        4130.675  
 123270172.551    96054700.0344   23457535.059 6  23457534.49743  23457540.49543
      6521.421        5081.631  
 123705475.050    96215390.529    23133546.743 5  23133547.568 5  23133552.993 6
     -1179.412        -917.317  
 125655143.620    97731798.279    23531173.729 6  23531173.037 6  23531178.676 6
      7039.727        5475.333  
 11  5 30 16 47 55.0000000  0 12R21R12R11R22G 9G25G14G 4G 2G29R20R13
 104851636.655    81551291.493    19594034.800 8  19594034.367 8  19594035.059 7
      1641.937        1277.069  
 104634026.161    81382039.933    19587709.067 8  19587708.859 8  19587714.072 7
      4963.677        3860.644  
 107332623.554    83480951.562    20085837.131 7  20085837.540 7  20085841.642 6
       715.057         556.153  
 107124957.037    83319429.133    20068113.695 8  20068113.045 8  20068117.501 8
      5829.318        4533.922  
 111294269.290    86722820.1014   21178593.335 6  21178592.25843  21178597.54643
         8.680           6.770  
 112927302.956    87995317.7674   21489351.247 8  21489350.46846  21489357.20146
      5173.675        4031.430  
 116888893.570    91082268.7074   22243215.440 7  22243215.36445  22243219.19145
      2965.800        2311.021  
 118973001.880    92706250.1124   22639809.527 7  22639809.34744  22639814.11144
      2978.748        2321.110  
 120763379.931    94101361.1184   22980507.742 7  22980507.25944  22980511.04744
      5303.207        4132.355  
 123237556.580    96029285.0114   23451328.452 6  23451327.94443  23451333.85343
      6524.836        5084.276  
 123711365.882    96219972.282    23134648.672 5  23134648.569 5  23134654.173 6
     -1176.417        -914.980  
 125619934.211    97704413.189    23524576.242 6  23524577.653 6  23524584.604 6
      7043.758        5478.488  
 11  5 30 16 48  0.0000000  0 13R21R12R11R22G 9G25G27G14G 4G 2G29R20
                                R13                                 
 104843425.534    81544905.070    19592500.173 8  19592499.664 8  19592500.516 7
      1642.496        1277.494  
 104609204.000    81362733.810    19583062.701 8  19583061.901 8  19583067.558 7
      4965.293        3861.890  
 107329044.990    83478168.241    20085167.574 7  20085167.878 7  20085172.351 6
       716.445         557.240  
 107095808.159    83296757.798    20062653.648 8  20062652.796 7  20062657.015 7
      5830.307        4534.675  
 111294219.844    86722781.5304   21178584.232 5  21178582.58643  21178588.46443
        11.130           8.684  
 112901427.098    87975154.7614   21484427.197 8  21484426.30646  21484433.01046
      5176.602        4033.714  
 118024429.934                    22459299.937 4                                
       275.346                  
 116874063.169    91070712.5674   22240394.393 7  22240393.84245  22240397.58145
      2966.567        2311.595  
 118958105.206    92694642.3104   22636974.868 7  22636974.74644  22636978.74744
      2979.756        2321.881  
 120736857.624    94080694.4114   22975461.418 7  22975460.53745  22975464.02045
      5305.649        4134.288  
 123204924.438    96003857.3894   23445117.115 6  23445117.92243  23445124.10843
      6528.049        5086.794  
 123717239.856    96224540.916    23135744.938 5  23135745.821 5  23135752.932 6
     -1172.961        -912.309  
 125584703.771    97677011.743    23517979.730 6  23517979.366 6  23517987.608 6
      7048.598        5482.245  
 11  5 30 16 48  5.0000000  0 13R21R12R11R22G 9G25G27G14G 4G 2G29R20
                                R13                                 
 104835212.715    81538517.323    19590965.571 8  19590965.202 8  19590966.122 7
      1642.694        1277.658  
 104584374.727    81343422.153    19578414.679 8  19578414.231 8  19578419.842 8
      4966.563        3862.875  
 107325459.699    83475379.670    20084497.675 7  20084496.812 7  20084501.695 6
       717.806         558.286  
 107066654.890    83274083.040    20057192.057 8  20057191.217 7  20057196.049 7
      5830.995        4535.219  
 111294161.126    86722735.7724   21178574.946 6  21178572.30143  21178577.05943
        12.639           9.856  
 112875537.619    87954981.1464   21479499.921 8  21479499.47546  21479506.19146
      5179.236        4035.770  
 118023046.139                    22459042.003 3                                
       277.135                  
 116859228.968    91059153.4484   22237571.858 7  22237571.17045  22237574.93345
      2967.168        2312.070  
 118943205.133    92683031.8674   22634138.813 7  22634139.20844  22634143.24644
      2980.356        2322.332  
 120710324.361    94060019.1404   22970411.701 7  22970411.27645  22970415.28945
      5307.771        4135.930  
 123172276.635    95978417.5184   23438904.423 6  23438904.56143  23438911.42243
      6531.106        5089.158  
 123723097.552    96229096.889    23136844.240 5  23136842.883 5  23136848.428 6
     -1170.019        -910.009  
 125549453.005    97649594.497    23511378.143 6  23511378.810 6  23511385.938 6
      7052.248        5485.084  
 11  5 30 16 48 10.0000000  0 13R21R12R11R22G 9G25G27G14G 4G 2G29R20
                                R13                                 
 104826998.338    81532128.364    19589430.211 8  19589429.913 8  19589431.456 7
      1643.029        1277.916  
 104559538.485    81324105.078    19573765.153 8  19573764.739 8  19573770.340 7
      4968.001        3864.003  
 107321867.724    83472585.912    20083825.031 7  20083825.066 7  20083829.308 6
       719.239         559.415  
 107037497.504    83251405.079    20051728.934 8  20051728.752 7  20051733.860 7
      5832.021        4536.028  
 111294093.381    86722682.9554   21178561.265 6  21178559.64143  21178564.37543
        14.631          11.391  
 112849634.720    87934797.0784   21474570.754 8  21474570.16346  21474576.94746
      5182.007        4037.939  
 118021655.110                    22458777.391 3                                
       279.254                  
 116844391.271    91047591.5924   22234748.071 7  22234747.45545  22234751.48845
      2967.925        2312.666  
 118928301.732    92671418.8194   22631303.459 7  22631303.18644  22631307.76044
      2980.840        2322.757  
 120683780.295    94039335.4614   22965360.131 7  22965359.62345  22965364.10745
      5310.151        4137.773  
 123139613.366    95952965.6284   23432688.495 6  23432688.82743  23432695.98343
      6534.409        5091.697  
 123728939.057    96233640.267    23137933.583 5  23137934.685 5  23137940.546 6
     -1166.494        -907.278  
 125514182.106    97622161.588    23504774.195 6  23504774.221 6  23504780.489 6
      7056.269        5488.230  
 11  5 30 16 48 15.0000000  0 13R21R12R11R22G 9G25G27G14G 4G 2G29R20
                                R13                                 
 104818782.406    81525738.199    19587895.043 8  19587894.093 8  19587896.165 7
      1643.414        1278.207  
 104534695.227    81304782.548    19569114.863 8  19569114.047 8  19569119.313 8
      4969.239        3864.963  
 107318269.234    83469787.087    20083151.660 7  20083151.843 7  20083156.069 6
       720.308         560.232  
 107008335.922    83228723.863    20046266.679 8  20046266.012 7  20046270.947 8
      5832.684        4536.535  
 111294016.579    86722623.0944   21178545.617 6  21178544.80243  21178550.00843
        16.397          12.812  
 112823718.400    87914602.5454   21469639.124 8  21469638.53346  21469645.11246
      5184.520        4039.889  
 118020251.394                    22458509.819 4                                
       280.864                  
 116829549.847    91036026.8514   22231923.348 7  22231923.00145  22231927.13245
      2968.518        2313.128  
 118913395.106    92659803.2574   22628467.874 7  22628467.03344  22628470.68844
      2981.740        2323.432  
 120657225.405    94018643.3474   22960307.892 7  22960306.82144  22960310.53045
      5312.039        4139.237  
 123106934.509    95927501.6144   23426469.608 6  23426470.35243  23426477.12643
      6537.283        5093.991  
 123734764.311    96238171.035    23139024.766 5  23139023.278 5  23139031.051 6
     -1163.540        -904.961  
 125478890.893    97594712.852    23498165.292 6  23498165.193 6  23498171.412 6
      7060.471        5491.477  
 11  5 30 16 48 20.0000000  0 13R21R12R11R22G 9G25G27G14G 4G 2G29R20
                                R13                                 
 104810565.298    81519347.116    19586359.294 8  19586358.927 8  19586361.151 7
      1643.476        1278.246  
 104509845.387    81285454.894    19564462.367 8  19564462.026 8  19564467.437 7
      4970.536        3865.973  
 107314664.550    83466983.439    20082477.626 7  20082477.176 7  20082481.544 6
       721.409         561.117  
 106979170.619    83206039.756    20040803.118 8  20040802.429 7  20040807.324 8
      5833.376        4537.076  
 111293931.055    86722556.4484   21178528.433 5  21178528.16243  21178533.36843
        17.753          13.798  
 112797788.942    87894397.7704   21464704.962 8  21464704.37346  21464711.01046
      5187.033        4041.833  
 118018835.068                    22458241.617 4                                
       284.390                  
 116814705.215    91024459.5924   22229099.030 7  22229098.32945  22229102.52545
      2969.206        2313.675  
 118898485.573    92648185.4344   22625630.758 7  22625629.96044  22625633.57144
      2981.760        2323.452  
 120630660.107    93997943.1184   22955252.215 7  22955251.45844  22955254.86545
      5313.988        4140.764  
 123074240.578    95902025.8424   23420249.457 5  23420249.00043  23420255.49443
      6540.347        5096.366  
 123740573.750    96242689.461    23140111.633 5  23140110.263 5  23140117.679 6
     -1160.376        -902.505  
 125443579.902    97567248.770    23491553.386 6  23491552.851 6  23491559.677 6
      7063.969        5494.189  
 11  5 30 16 48 25.0000000  0 13R21R12R11R22G 9G25G27G14G 4G 2G29R20
                                R13                                 
 104802347.366    81512955.401    19584824.059 8  19584823.748 8  19584825.692 7
      1643.546        1278.311  
 104484989.281    81266122.376    19559808.818 8  19559808.497 8  19559813.899 7
      4971.733        3866.893  
 107311053.932    83464175.158    20081801.056 7  20081801.304 7  20081805.423 6
       722.656         562.071  
 106950001.853    83183352.944    20035338.636 7  20035337.829 7  20035343.176 8
      5834.021        4537.560  
 111293837.123    86722483.2704   21178509.880 6  21178509.45643  21178515.17943
        19.682          15.373  
 112771846.702    87874183.0464   21459768.887 8  21459768.20046  21459774.31646
      5189.785        4043.983  
 118017406.726                    22457968.512 5                                
       286.758                  
 116799857.601    91012890.0224   22226273.267 7  22226272.84345  22226276.70745
      2969.748        2314.072  
 118883573.350    92636565.5414   22622791.563 7  22622791.83144  22622796.70044
      2982.640        2324.124  
 120604084.618    93977234.9574   22950194.679 7  22950194.41344  22950197.87044
      5316.207        4142.489  
 123041531.811    95876538.5034   23414027.032 6  23414025.42643  23414031.12243
      6543.125        5098.498  
 123746367.554    96247195.736    23141195.121 5  23141195.059 5  23141201.678 6
     -1157.445        -900.245  
 125408249.373    97539769.481    23484937.900 6  23484936.471 6  23484943.395 6
      7068.015        5497.342  
 11  5 30 16 48 30.0000000  0 13R21R12R11R22G 9G25G27G14G 4G 2G29R20
                                R13                                 
 104794128.863    81506563.229    19583288.342 8  19583287.436 8  19583289.011 7
      1643.729        1278.444  
 104460127.367    81246785.307    19555155.114 8  19555154.469 8  19555160.017 8
      4972.971        3867.859  
 107307437.785    83461362.586    20081125.142 8  20081125.035 7  20081128.674 6
       723.613         562.800  
 106920830.054    83160663.740    20029873.191 7  20029872.921 7  20029877.452 7
      5834.578        4538.006  
 111293735.201    86722403.8244   21178490.589 6  21178490.13443  21178496.10843
        21.147          16.498  
 112745892.081    87853958.6724   21454830.275 8  21454829.40746  21454835.48646
      5192.105        4045.781  
 118015966.601                    22457693.563 5                                
       289.028                  
 116785007.427    91001318.4404   22223447.578 7  22223447.08145  22223450.75645
      2970.475        2314.668  
 118868658.900    92624943.9054   22619952.281 6  22619952.78344  22619958.47944
      2982.725        2324.171  
 120577499.431    93956519.2254   22945136.050 7  22945135.64344  22945138.49844
      5317.964        4143.891  
 123008808.564    95851039.9064   23407798.789 6  23407799.02843  23407803.62643
      6546.166        5100.888  
 123752146.015    96251690.089    23142275.949 5  23142275.969 5  23142281.424 6
     -1154.001        -897.589  
 125372899.657    97512275.270    23478318.078 6  23478316.864 6  23478324.184 6
      7071.817        5500.303  
 11  5 30 16 48 35.0000000  0 13R21R12R11R22G 9G25G27G14G 4G 2G29R20
                                R13                                 
 104785909.790    81500170.609    19581751.685 8  19581751.603 8  19581752.929 7
      1643.857        1278.566  
 104435259.534    81227443.654    19550499.282 8  19550499.252 8  19550504.858 7
      4974.042        3868.715  
 107303816.098    83458545.726    20080447.548 8  20080447.456 7  20080451.098 6
       724.890         563.796  
 106891655.282    83137972.271    20024407.978 7  20024407.614 7  20024411.698 7
      5835.256        4538.537  
 111293625.177    86722318.0614   21178471.450 6  21178469.74543  21178475.71543
        23.006          17.939  
 112719925.093    87833724.6494   21449889.005 8  21449888.36246  21449894.07646
      5194.534        4047.688  
 118014514.939                    22457419.359 4                                
       291.105                  
 116770154.691    90989744.8804   22220621.833 7  22220620.66045  22220624.40345
      2970.691        2314.828  
 118853742.265    92613320.5524   22617113.836 7  22617113.91044  22617120.41144
      2983.641        2324.920  
 120550904.518    93935795.9284   22940074.867 7  22940074.88744  22940077.29644
      5319.973        4145.416  
 122976070.991    95825530.1184   23401570.114 6  23401569.57643  23401573.89943
      6548.941        5103.077  
 123757909.363    96256172.678    23143352.391 5  23143352.626 5  23143359.182 6
     -1151.392        -895.524  
 125337530.996    97484766.317    23471693.203 6  23471693.238 6  23471700.696 6
      7075.724        5503.333  
 11  5 30 16 48 40.0000000  0 13R21R12R11R22G 9G25G27G14G 4G 2G29R20
                                R13                                 
 104777690.152    81493777.558    19580216.304 8  19580215.723 8  19580217.188 7
      1644.066        1278.720  
 104410385.943    81208097.522    19545842.866 8  19545842.733 8  19545848.397 7
